site_id,igbp,region,network,location_lat,location_long,has_badm_record,has_dom_dist_mgmt,dom_dist_mgmt_values,has_site_desc,mgmt_harvest,mgmt_tillage,mgmt_fertilization,mgmt_grazing,mgmt_irrigation,mgmt_thinning,mgmt_burning,mgmt_drainage_wtd,mgmt_forestry_unspecified,mgmt_other,any_management,wtd_group_present
AR-Bal,CRO,S. America,AmeriFlux,-37.7596,-58.3024,TRUE,TRUE,Agriculture,TRUE,FALSE,FALSE,FALSE,FALSE,FALSE,FALSE,FALSE,TRUE,FALSE,FALSE,TRUE,FALSE
AR-CCa,CRO,S. America,AmeriFlux,-35.621,-61.3181,TRUE,TRUE,Agriculture,TRUE,FALSE,FALSE,FALSE,FALSE,FALSE,FALSE,FALSE,FALSE,FALSE,TRUE,TRUE,FALSE
AR-CCg,GRA,S. America,AmeriFlux,-35.9244,-61.1855,TRUE,TRUE,Grazing; Land cover change,TRUE,FALSE,FALSE,FALSE,TRUE,FALSE,FALSE,FALSE,FALSE,FALSE,FALSE,TRUE,FALSE
AR-TF1,WET,S. America,AmeriFlux,-54.9733,-66.7335,TRUE,FALSE,NA,TRUE,FALSE,FALSE,FALSE,FALSE,FALSE,FALSE,FALSE,FALSE,FALSE,FALSE,FALSE,FALSE
AR-TF2,WET,S. America,AmeriFlux,-54.8269,-68.4549,TRUE,FALSE,NA,TRUE,FALSE,FALSE,FALSE,FALSE,FALSE,FALSE,FALSE,FALSE,FALSE,FALSE,FALSE,FALSE
AT-Mmg,ENF,Europe,European Fluxes Database,47.316563,10.970089,TRUE,FALSE,NA,TRUE,FALSE,FALSE,FALSE,FALSE,FALSE,FALSE,FALSE,FALSE,FALSE,FALSE,FALSE,FALSE
AT-Neu,GRA,Europe,CarboEuropeIP;European Fluxes Database;GHG-Europe,47.116318,11.320229,TRUE,FALSE,NA,TRUE,TRUE,FALSE,FALSE,FALSE,FALSE,FALSE,FALSE,FALSE,FALSE,FALSE,TRUE,FALSE
AT-Nsd,WET,Europe,European Fluxes Database;LTER,47.76914,16.758492,TRUE,FALSE,NA,TRUE,FALSE,FALSE,FALSE,FALSE,FALSE,FALSE,FALSE,FALSE,FALSE,FALSE,FALSE,FALSE
AT-PsM,WET,Europe,European Fluxes Database;LTER,47.58145,14.347197,TRUE,FALSE,NA,TRUE,FALSE,FALSE,FALSE,FALSE,FALSE,FALSE,FALSE,FALSE,FALSE,FALSE,FALSE,FALSE
AT-Zoe,MF,Europe,European Fluxes Database;LTER,47.842247,14.444137,TRUE,FALSE,NA,TRUE,FALSE,FALSE,FALSE,FALSE,FALSE,FALSE,FALSE,FALSE,FALSE,FALSE,FALSE,FALSE
AU-APL,WET,Australia,OzFlux,-36.862222,147.320833,TRUE,FALSE,NA,FALSE,FALSE,FALSE,FALSE,FALSE,FALSE,FALSE,FALSE,FALSE,FALSE,FALSE,FALSE,FALSE
AU-ASM,SAV,Australia,TERN,-22.283,133.249,TRUE,FALSE,NA,FALSE,FALSE,FALSE,FALSE,FALSE,FALSE,FALSE,FALSE,FALSE,FALSE,FALSE,FALSE,FALSE
AU-Ade,WSA,Australia,OzFlux,-13.0769,131.1178,TRUE,FALSE,NA,FALSE,FALSE,FALSE,FALSE,FALSE,FALSE,FALSE,FALSE,FALSE,FALSE,FALSE,FALSE,FALSE
AU-Boy,EBF,Australia,TERN,-32.477093000000004,116.938559,TRUE,FALSE,NA,FALSE,FALSE,FALSE,FALSE,FALSE,FALSE,FALSE,FALSE,FALSE,FALSE,FALSE,FALSE,FALSE
AU-Col,EBF,Australia,OzFlux,-33.42,116.237,TRUE,FALSE,NA,FALSE,FALSE,FALSE,FALSE,FALSE,FALSE,FALSE,FALSE,FALSE,FALSE,FALSE,FALSE,FALSE
AU-Cow,EBF,Australia,OzFlux,-16.238189,145.42715,TRUE,FALSE,NA,FALSE,FALSE,FALSE,FALSE,FALSE,FALSE,FALSE,FALSE,FALSE,FALSE,FALSE,FALSE,FALSE
AU-Cpr,WSA,Australia,TERN,-34.0027,140.5877,TRUE,FALSE,NA,FALSE,FALSE,FALSE,FALSE,FALSE,FALSE,FALSE,FALSE,FALSE,FALSE,FALSE,FALSE,FALSE
AU-Ctr,EBF,Australia,OzFlux,-16.103219,145.446922,TRUE,FALSE,NA,FALSE,FALSE,FALSE,FALSE,FALSE,FALSE,FALSE,FALSE,FALSE,FALSE,FALSE,FALSE,FALSE
AU-Cum,EBF,Australia,TERN,-33.615278000000004,150.723611,TRUE,FALSE,NA,FALSE,FALSE,FALSE,FALSE,FALSE,FALSE,FALSE,FALSE,FALSE,FALSE,FALSE,FALSE,FALSE
AU-DaP,GRA,Australia,OzFlux,-14.0633,131.3181,TRUE,FALSE,NA,FALSE,FALSE,FALSE,FALSE,FALSE,FALSE,FALSE,FALSE,FALSE,FALSE,FALSE,FALSE,FALSE
AU-DaS,WSA,Australia,OzFlux,-14.1592,131.3881,TRUE,FALSE,NA,FALSE,FALSE,FALSE,FALSE,FALSE,FALSE,FALSE,FALSE,FALSE,FALSE,FALSE,FALSE,FALSE
AU-Dry,WSA,Australia,OzFlux,-15.2588,132.3706,TRUE,FALSE,NA,FALSE,FALSE,FALSE,FALSE,FALSE,FALSE,FALSE,FALSE,FALSE,FALSE,FALSE,FALSE,FALSE
AU-Emr,GRA,Australia,OzFlux,-23.85872,148.4746,TRUE,FALSE,NA,FALSE,FALSE,FALSE,FALSE,FALSE,FALSE,FALSE,FALSE,FALSE,FALSE,FALSE,FALSE,FALSE
AU-Fle,WSA,Australia,OzFlux,-19.887285,146.189138,TRUE,FALSE,NA,FALSE,FALSE,FALSE,FALSE,FALSE,FALSE,FALSE,FALSE,FALSE,FALSE,FALSE,FALSE,FALSE
AU-Fog,GRA,Australia,OzFlux,-12.5452,131.3072,TRUE,FALSE,NA,FALSE,FALSE,FALSE,FALSE,FALSE,FALSE,FALSE,FALSE,FALSE,FALSE,FALSE,FALSE,FALSE
AU-GWW,EBF,Australia,OzFlux,-30.1914,120.65417,TRUE,FALSE,NA,FALSE,FALSE,FALSE,FALSE,FALSE,FALSE,FALSE,FALSE,FALSE,FALSE,FALSE,FALSE,FALSE
AU-Gin,EBF,Australia,OzFlux,-31.376351,115.71377,TRUE,FALSE,NA,FALSE,FALSE,FALSE,FALSE,FALSE,FALSE,FALSE,FALSE,FALSE,FALSE,FALSE,FALSE,FALSE
AU-How,WSA,Australia,OzFlux,-12.4952,131.15005,TRUE,FALSE,NA,FALSE,FALSE,FALSE,FALSE,FALSE,FALSE,FALSE,FALSE,FALSE,FALSE,FALSE,FALSE,FALSE
AU-Lit,WSA,Australia,TERN,-13.17904,130.79455,TRUE,FALSE,NA,FALSE,FALSE,FALSE,FALSE,FALSE,FALSE,FALSE,FALSE,FALSE,FALSE,FALSE,FALSE,FALSE
AU-Lon,GRA,Australia,OzFlux,-23.52327,144.31042,TRUE,FALSE,NA,FALSE,FALSE,FALSE,FALSE,FALSE,FALSE,FALSE,FALSE,FALSE,FALSE,FALSE,FALSE,FALSE
AU-Lox,DBF,Australia,OzFlux,-34.47035,140.65512,TRUE,FALSE,NA,FALSE,FALSE,FALSE,FALSE,FALSE,FALSE,FALSE,FALSE,FALSE,FALSE,FALSE,FALSE,FALSE
AU-MvA,CRO,Australia,OzFlux,-30.543,150.02,TRUE,FALSE,NA,FALSE,FALSE,FALSE,FALSE,FALSE,FALSE,FALSE,FALSE,FALSE,FALSE,FALSE,FALSE,FALSE
AU-MvB,CRO,Australia,OzFlux,-30.697,150.09,TRUE,FALSE,NA,FALSE,FALSE,FALSE,FALSE,FALSE,FALSE,FALSE,FALSE,FALSE,FALSE,FALSE,FALSE,FALSE
AU-Otw,GRA,Australia,OzFlux,-38.525,142.81,TRUE,FALSE,NA,FALSE,FALSE,FALSE,FALSE,FALSE,FALSE,FALSE,FALSE,FALSE,FALSE,FALSE,FALSE,FALSE
AU-RDF,WSA,Australia,OzFlux,-14.563639,132.477567,TRUE,FALSE,NA,FALSE,FALSE,FALSE,FALSE,FALSE,FALSE,FALSE,FALSE,FALSE,FALSE,FALSE,FALSE,FALSE
AU-Rgf,CVM,Australia,OzFlux,-32.506102,116.966827,TRUE,FALSE,NA,FALSE,FALSE,FALSE,FALSE,FALSE,FALSE,FALSE,FALSE,FALSE,FALSE,FALSE,FALSE,FALSE
AU-Rig,GRA,Australia,OzFlux,-36.6499,145.5759,TRUE,FALSE,NA,FALSE,FALSE,FALSE,FALSE,FALSE,FALSE,FALSE,FALSE,FALSE,FALSE,FALSE,FALSE,FALSE
AU-Rob,EBF,Australia,OzFlux,-17.11746943,145.6301375,TRUE,FALSE,NA,FALSE,FALSE,FALSE,FALSE,FALSE,FALSE,FALSE,FALSE,FALSE,FALSE,FALSE,FALSE,FALSE
AU-Sam,GRA,Australia,OzFlux,-27.38806,152.87778,TRUE,FALSE,NA,FALSE,FALSE,FALSE,FALSE,FALSE,FALSE,FALSE,FALSE,FALSE,FALSE,FALSE,FALSE,FALSE
AU-Sil,GRA,Australia,OzFlux,-42.090556,147.0875,TRUE,FALSE,NA,FALSE,FALSE,FALSE,FALSE,FALSE,FALSE,FALSE,FALSE,FALSE,FALSE,FALSE,FALSE,FALSE
AU-Sno,EBF,Australia,OzFlux,-36.375649,148.43585,TRUE,FALSE,NA,FALSE,FALSE,FALSE,FALSE,FALSE,FALSE,FALSE,FALSE,FALSE,FALSE,FALSE,FALSE,FALSE
AU-Stp,GRA,Australia,OzFlux,-17.1507,133.3502,TRUE,FALSE,NA,FALSE,FALSE,FALSE,FALSE,FALSE,FALSE,FALSE,FALSE,FALSE,FALSE,FALSE,FALSE,FALSE
AU-TTE,SAV,Australia,OzFlux,-22.287,133.64,TRUE,FALSE,NA,FALSE,FALSE,FALSE,FALSE,FALSE,FALSE,FALSE,FALSE,FALSE,FALSE,FALSE,FALSE,FALSE
AU-Tum,EBF,Australia,OzFlux,-35.6566,148.1516,TRUE,FALSE,NA,FALSE,FALSE,FALSE,FALSE,FALSE,FALSE,FALSE,FALSE,FALSE,FALSE,FALSE,FALSE,FALSE
AU-Wac,EBF,Australia,OzFlux,-37.4259,145.1878,TRUE,FALSE,NA,FALSE,FALSE,FALSE,FALSE,FALSE,FALSE,FALSE,FALSE,FALSE,FALSE,FALSE,FALSE,FALSE
AU-Wel,GRA,Australia,OzFlux,-32.5727,148.9843,TRUE,FALSE,NA,FALSE,FALSE,FALSE,FALSE,FALSE,FALSE,FALSE,FALSE,FALSE,FALSE,FALSE,FALSE,FALSE
AU-Wgt,GRA,Australia,OzFlux,-42.09139,147.07944,TRUE,FALSE,NA,FALSE,FALSE,FALSE,FALSE,FALSE,FALSE,FALSE,FALSE,FALSE,FALSE,FALSE,FALSE,FALSE
AU-Whr,EBF,Australia,OzFlux,-36.6732,145.0294,TRUE,FALSE,NA,FALSE,FALSE,FALSE,FALSE,FALSE,FALSE,FALSE,FALSE,FALSE,FALSE,FALSE,FALSE,FALSE
AU-Wom,EBF,Australia,TERN,-37.422506,144.094046,TRUE,FALSE,NA,FALSE,FALSE,FALSE,FALSE,FALSE,FALSE,FALSE,FALSE,FALSE,FALSE,FALSE,FALSE,FALSE
AU-Wrr,EBF,Australia,OzFlux,-43.09502,146.65452,TRUE,FALSE,NA,FALSE,FALSE,FALSE,FALSE,FALSE,FALSE,FALSE,FALSE,FALSE,FALSE,FALSE,FALSE,FALSE
AU-Ya1,GRA,Australia,OzFlux,-33.613469,150.734864,TRUE,FALSE,NA,FALSE,FALSE,FALSE,FALSE,FALSE,FALSE,FALSE,FALSE,FALSE,FALSE,FALSE,FALSE,FALSE
AU-Ya2,GRA,Australia,OzFlux,-33.620812,150.763284,TRUE,FALSE,NA,FALSE,FALSE,FALSE,FALSE,FALSE,FALSE,FALSE,FALSE,FALSE,FALSE,FALSE,FALSE,FALSE
AU-Ync,GRA,Australia,OzFlux,-34.9878,146.2908,TRUE,FALSE,NA,FALSE,FALSE,FALSE,FALSE,FALSE,FALSE,FALSE,FALSE,FALSE,FALSE,FALSE,FALSE,FALSE
BE-Bra,ENF,Europe,European Fluxes Database;ICOS,51.30761,4.51984,TRUE,FALSE,NA,TRUE,FALSE,FALSE,FALSE,FALSE,FALSE,FALSE,FALSE,FALSE,FALSE,FALSE,FALSE,FALSE
BE-Dor,GRA,Europe,European Fluxes Database;ICOS,50.311874,4.968113,TRUE,FALSE,NA,TRUE,FALSE,FALSE,TRUE,TRUE,FALSE,FALSE,FALSE,FALSE,FALSE,FALSE,TRUE,FALSE
BE-Lcr,DBF,Europe,European Fluxes Database,51.11218,3.85043,TRUE,FALSE,NA,TRUE,FALSE,FALSE,FALSE,FALSE,FALSE,FALSE,FALSE,FALSE,FALSE,FALSE,FALSE,TRUE
BE-Lon,CRO,Europe,European Fluxes Database;ICOS,50.55162,4.746234,TRUE,FALSE,NA,TRUE,FALSE,FALSE,FALSE,FALSE,FALSE,FALSE,FALSE,FALSE,FALSE,FALSE,FALSE,FALSE
BE-Maa,CSH,Europe,European Fluxes Database;ICOS,50.97987,5.631851,TRUE,FALSE,NA,TRUE,FALSE,FALSE,FALSE,FALSE,FALSE,FALSE,FALSE,FALSE,FALSE,FALSE,FALSE,FALSE
BE-Vie,MF,Europe,European Fluxes Database;ICOS,50.304962,5.998099,TRUE,FALSE,NA,TRUE,FALSE,FALSE,FALSE,FALSE,FALSE,TRUE,TRUE,FALSE,FALSE,FALSE,TRUE,FALSE
BJ-Bfg,DBF,Africa,Unaffiliated,9.791,1.718,TRUE,FALSE,NA,TRUE,FALSE,FALSE,FALSE,FALSE,FALSE,FALSE,FALSE,FALSE,FALSE,FALSE,FALSE,FALSE
BJ-Db1,CRO,Africa,Unaffiliated,6.607338,2.543043,TRUE,FALSE,NA,TRUE,FALSE,FALSE,FALSE,FALSE,FALSE,FALSE,FALSE,FALSE,FALSE,FALSE,FALSE,FALSE
BJ-Nhu,SAV,Africa,Unaffiliated,9.74,1.6,TRUE,FALSE,NA,TRUE,FALSE,FALSE,FALSE,FALSE,FALSE,FALSE,FALSE,FALSE,FALSE,FALSE,FALSE,FALSE
BR-CST,DNF,S. America,AmeriFlux,-7.9682,-38.3842,TRUE,TRUE,Drought,TRUE,FALSE,FALSE,FALSE,TRUE,FALSE,FALSE,FALSE,FALSE,FALSE,FALSE,TRUE,FALSE
BR-ITA,EBF,S. America,AmeriFlux,-23.0604,-48.6467,TRUE,TRUE,Drought; Land cover change,TRUE,FALSE,FALSE,FALSE,FALSE,FALSE,FALSE,FALSE,FALSE,FALSE,TRUE,TRUE,FALSE
BR-Ji3,EBF,S. America,AmeriFlux;LBA,-10.1866,-61.8725,TRUE,TRUE,Undisturbed,TRUE,FALSE,FALSE,FALSE,FALSE,FALSE,FALSE,FALSE,FALSE,FALSE,FALSE,FALSE,FALSE
BR-Ma2,EBF,S. America,AmeriFlux;LBA,-2.6091,-60.2093,TRUE,TRUE,Undisturbed,TRUE,FALSE,FALSE,FALSE,FALSE,FALSE,FALSE,FALSE,FALSE,FALSE,FALSE,FALSE,FALSE
BR-Ma3,CVM,S. America,AmeriFlux;LBA,-2.3907,-59.8835,TRUE,TRUE,Undisturbed,TRUE,FALSE,FALSE,FALSE,TRUE,FALSE,FALSE,FALSE,FALSE,FALSE,FALSE,TRUE,FALSE
BR-Npw,WSA,S. America,AmeriFlux,-16.498,-56.412,TRUE,TRUE,Hydrologic event,TRUE,FALSE,FALSE,FALSE,FALSE,FALSE,FALSE,FALSE,FALSE,FALSE,FALSE,FALSE,FALSE
BR-SM1,CRO,S. America,AmeriFlux,-30.2771,-53.1479,TRUE,FALSE,NA,TRUE,FALSE,FALSE,FALSE,FALSE,FALSE,FALSE,FALSE,FALSE,FALSE,FALSE,FALSE,FALSE
BR-Sa1,EBF,S. America,AmeriFlux;LBA,-2.8567,-54.9589,TRUE,TRUE,Undisturbed,TRUE,FALSE,FALSE,FALSE,FALSE,FALSE,FALSE,FALSE,FALSE,FALSE,FALSE,FALSE,FALSE
BR-Sa3,EBF,S. America,AmeriFlux,-3.018,-54.9714,TRUE,FALSE,NA,TRUE,FALSE,FALSE,FALSE,FALSE,FALSE,FALSE,FALSE,FALSE,FALSE,FALSE,FALSE,FALSE
BR-Xpw,GRA,S. America,AmeriFlux,-16.373,-56.461,TRUE,TRUE,Grazing; Hydrologic event,TRUE,FALSE,FALSE,FALSE,TRUE,FALSE,FALSE,FALSE,FALSE,FALSE,FALSE,TRUE,FALSE
BW-Gum,WET,Africa,Unaffiliated,-18.964722,22.37111,TRUE,FALSE,NA,FALSE,FALSE,FALSE,FALSE,FALSE,FALSE,FALSE,FALSE,FALSE,FALSE,FALSE,FALSE,FALSE
BW-Nxr,GRA,Africa,Unaffiliated,-19.548056,23.179167,TRUE,FALSE,NA,TRUE,FALSE,FALSE,FALSE,TRUE,FALSE,FALSE,FALSE,FALSE,FALSE,FALSE,TRUE,FALSE
CA-ARB,WET,N. America,AmeriFlux,52.695,-83.9452,TRUE,TRUE,Undisturbed,TRUE,FALSE,FALSE,FALSE,FALSE,FALSE,FALSE,FALSE,FALSE,FALSE,FALSE,FALSE,FALSE
CA-ARF,WET,N. America,AmeriFlux,52.7008,-83.955,TRUE,TRUE,Undisturbed,TRUE,FALSE,FALSE,FALSE,FALSE,FALSE,FALSE,FALSE,FALSE,FALSE,FALSE,FALSE,FALSE
CA-BOU,WET,N. America,AmeriFlux,50.5244,-63.2064,TRUE,FALSE,NA,TRUE,FALSE,FALSE,FALSE,FALSE,FALSE,FALSE,FALSE,FALSE,FALSE,FALSE,FALSE,FALSE
CA-CF1,WET,N. America,AmeriFlux,58.6658,-93.83,TRUE,FALSE,NA,TRUE,FALSE,FALSE,FALSE,FALSE,FALSE,FALSE,FALSE,TRUE,FALSE,FALSE,TRUE,FALSE
CA-CF2,WET,N. America,AmeriFlux,58.6658,-93.83,TRUE,FALSE,NA,TRUE,FALSE,FALSE,FALSE,FALSE,FALSE,FALSE,FALSE,TRUE,FALSE,FALSE,TRUE,FALSE
CA-CF3,WET,N. America,AmeriFlux,58.6658,-93.8304,TRUE,TRUE,Undisturbed,TRUE,FALSE,FALSE,FALSE,FALSE,FALSE,FALSE,FALSE,TRUE,FALSE,FALSE,TRUE,FALSE
CA-Ca1,ENF,N. America,AmeriFlux;Fluxnet-Canada,49.8673,-125.3336,TRUE,TRUE,Forestry,TRUE,FALSE,FALSE,FALSE,FALSE,FALSE,FALSE,FALSE,FALSE,TRUE,FALSE,TRUE,FALSE
CA-Ca2,ENF,N. America,AmeriFlux;Fluxnet-Canada,49.8705,-125.2909,TRUE,TRUE,Forestry,TRUE,FALSE,FALSE,FALSE,FALSE,FALSE,FALSE,FALSE,FALSE,TRUE,FALSE,TRUE,FALSE
CA-Ca3,ENF,N. America,AmeriFlux;Fluxnet-Canada;Phenocam,49.5346,-124.9004,TRUE,TRUE,Forestry,TRUE,TRUE,FALSE,FALSE,FALSE,FALSE,FALSE,FALSE,FALSE,FALSE,FALSE,TRUE,FALSE
CA-Cbo,DBF,N. America,AmeriFlux;Fluxnet-Canada,44.3184,-79.9341,TRUE,FALSE,NA,TRUE,FALSE,FALSE,FALSE,FALSE,FALSE,FALSE,FALSE,FALSE,FALSE,FALSE,FALSE,FALSE
CA-DB2,WET,N. America,AmeriFlux,49.119,-122.9951,TRUE,TRUE,Hydrologic event,TRUE,FALSE,FALSE,FALSE,FALSE,FALSE,FALSE,TRUE,FALSE,FALSE,FALSE,TRUE,FALSE
CA-DBB,WET,N. America,AmeriFlux,49.1293,-122.9849,TRUE,TRUE,Hydrologic event,TRUE,TRUE,FALSE,FALSE,FALSE,FALSE,FALSE,FALSE,TRUE,FALSE,FALSE,TRUE,FALSE
CA-DSM,WET,N. America,AmeriFlux,49.0887,-122.8954,TRUE,TRUE,Land cover change,TRUE,FALSE,FALSE,FALSE,FALSE,FALSE,FALSE,FALSE,FALSE,FALSE,TRUE,TRUE,FALSE
CA-EM1,WET,N. America,AmeriFlux,50.3623,-100.2024,TRUE,FALSE,NA,TRUE,FALSE,FALSE,FALSE,FALSE,FALSE,FALSE,FALSE,FALSE,FALSE,FALSE,FALSE,FALSE
CA-EM2,WET,N. America,AmeriFlux,50.3706,-100.5339,TRUE,FALSE,NA,TRUE,FALSE,FALSE,FALSE,TRUE,FALSE,FALSE,FALSE,FALSE,FALSE,FALSE,TRUE,FALSE
CA-Gro,MF,N. America,AmeriFlux;Fluxnet-Canada;Phenocam,48.2167,-82.1556,TRUE,TRUE,Forestry,TRUE,FALSE,FALSE,FALSE,FALSE,FALSE,FALSE,FALSE,FALSE,TRUE,FALSE,TRUE,FALSE
CA-HPC,ENF,N. America,AmeriFlux,68.3203,-133.5188,TRUE,TRUE,Undisturbed,TRUE,FALSE,FALSE,FALSE,FALSE,FALSE,FALSE,FALSE,FALSE,FALSE,FALSE,FALSE,FALSE
CA-KLP,WET,N. America,AmeriFlux,51.5902,-81.7684,TRUE,TRUE,Undisturbed,TRUE,FALSE,FALSE,FALSE,FALSE,FALSE,FALSE,FALSE,FALSE,FALSE,FALSE,FALSE,FALSE
CA-LP1,ENF,N. America,AmeriFlux,55.1119,-122.8414,TRUE,TRUE,Land cover change; Pests and disease,TRUE,FALSE,FALSE,FALSE,FALSE,FALSE,FALSE,FALSE,FALSE,FALSE,TRUE,TRUE,FALSE
CA-LU1,OSH,N. America,AmeriFlux,59.5951,-117.2862,TRUE,TRUE,Fire,TRUE,FALSE,FALSE,FALSE,FALSE,FALSE,FALSE,TRUE,FALSE,FALSE,FALSE,TRUE,FALSE
CA-LU2,OSH,N. America,AmeriFlux,59.4405,-117.2422,TRUE,TRUE,Fire,TRUE,FALSE,TRUE,FALSE,FALSE,FALSE,FALSE,TRUE,FALSE,FALSE,FALSE,TRUE,FALSE
CA-MA1,CRO,N. America,AmeriFlux,50.1645,-97.8762,TRUE,TRUE,Agriculture,TRUE,FALSE,TRUE,FALSE,FALSE,FALSE,FALSE,FALSE,FALSE,FALSE,FALSE,TRUE,FALSE
CA-MA2,CRO,N. America,AmeriFlux,50.171,-97.8762,TRUE,TRUE,Agriculture,TRUE,FALSE,TRUE,FALSE,TRUE,FALSE,FALSE,FALSE,FALSE,FALSE,FALSE,TRUE,FALSE
CA-MA3,GRA,N. America,AmeriFlux,50.1774,-97.8686,TRUE,TRUE,Grazing,TRUE,TRUE,FALSE,FALSE,TRUE,FALSE,FALSE,FALSE,FALSE,FALSE,FALSE,TRUE,FALSE
CA-Man,ENF,N. America,AmeriFlux;Fluxnet-Canada,55.8796,-98.4808,TRUE,TRUE,Fire,TRUE,FALSE,FALSE,FALSE,FALSE,FALSE,FALSE,TRUE,TRUE,FALSE,FALSE,TRUE,FALSE
CA-Mer,WET,N. America,AmeriFlux;Fluxnet-Canada;Phenocam,45.4094,-75.5186,TRUE,TRUE,Undisturbed,TRUE,FALSE,TRUE,FALSE,FALSE,FALSE,FALSE,FALSE,FALSE,FALSE,FALSE,TRUE,FALSE
CA-Mtk,GRA,N. America,AmeriFlux,72.6695,-77.9981,TRUE,FALSE,NA,TRUE,FALSE,FALSE,FALSE,FALSE,FALSE,FALSE,FALSE,FALSE,FALSE,FALSE,FALSE,FALSE
CA-Na1,ENF,N. America,AmeriFlux;Fluxnet-Canada,46.4722,-67.1,TRUE,FALSE,NA,TRUE,FALSE,FALSE,FALSE,FALSE,FALSE,FALSE,FALSE,FALSE,FALSE,FALSE,FALSE,FALSE
CA-Ojp,ENF,N. America,AmeriFlux;Fluxnet-Canada,53.9163,-104.692,TRUE,TRUE,Fire,TRUE,FALSE,FALSE,FALSE,FALSE,FALSE,FALSE,TRUE,FALSE,FALSE,FALSE,TRUE,FALSE
CA-PB1,WET,N. America,AmeriFlux,54.9417,-83.4579,TRUE,TRUE,Undisturbed,TRUE,FALSE,FALSE,FALSE,FALSE,FALSE,FALSE,FALSE,FALSE,FALSE,FALSE,FALSE,FALSE
CA-PB2,WET,N. America,AmeriFlux,54.9389,-83.4736,TRUE,TRUE,Undisturbed,TRUE,FALSE,FALSE,FALSE,FALSE,FALSE,FALSE,FALSE,FALSE,FALSE,FALSE,FALSE,FALSE
CA-Qc2,MF,N. America,AmeriFlux;Fluxnet-Canada,49.7598,-74.5711,TRUE,FALSE,NA,TRUE,TRUE,FALSE,FALSE,FALSE,FALSE,FALSE,FALSE,FALSE,FALSE,FALSE,TRUE,FALSE
CA-Qfo,ENF,N. America,AmeriFlux;Fluxnet-Canada;Phenocam,49.6925,-74.3421,TRUE,TRUE,Fire,TRUE,FALSE,FALSE,FALSE,FALSE,FALSE,FALSE,TRUE,FALSE,FALSE,FALSE,TRUE,FALSE
CA-RBM,WET,N. America,AmeriFlux,49.1313,-123.1964,TRUE,TRUE,Land cover change,TRUE,FALSE,FALSE,FALSE,FALSE,FALSE,FALSE,FALSE,FALSE,FALSE,TRUE,TRUE,FALSE
CA-SCB,WET,N. America,AmeriFlux,61.3089,-121.2984,TRUE,TRUE,Undisturbed,TRUE,FALSE,FALSE,FALSE,FALSE,FALSE,FALSE,FALSE,FALSE,FALSE,FALSE,FALSE,FALSE
CA-SCC,ENF,N. America,AmeriFlux,61.3079,-121.2992,TRUE,TRUE,Fire; Land cover change,TRUE,FALSE,FALSE,FALSE,FALSE,FALSE,FALSE,TRUE,FALSE,FALSE,FALSE,TRUE,FALSE
CA-SF1,ENF,N. America,AmeriFlux;Fluxnet-Canada,54.485,-105.8176,TRUE,FALSE,NA,TRUE,FALSE,FALSE,FALSE,FALSE,FALSE,FALSE,TRUE,FALSE,FALSE,FALSE,TRUE,FALSE
CA-SF2,ENF,N. America,AmeriFlux;Fluxnet-Canada,54.2539,-105.8775,TRUE,FALSE,NA,TRUE,FALSE,TRUE,FALSE,FALSE,FALSE,FALSE,TRUE,FALSE,FALSE,FALSE,TRUE,FALSE
CA-SF3,OSH,N. America,AmeriFlux;Fluxnet-Canada,54.0916,-106.0053,TRUE,FALSE,NA,TRUE,FALSE,FALSE,FALSE,FALSE,FALSE,FALSE,TRUE,FALSE,FALSE,FALSE,TRUE,FALSE
CA-SJ2,ENF,N. America,AmeriFlux;Fluxnet-Canada,53.945,-104.649,TRUE,TRUE,Fire; Forestry,TRUE,FALSE,FALSE,FALSE,FALSE,FALSE,FALSE,TRUE,FALSE,TRUE,FALSE,TRUE,FALSE
CA-SMC,ENF,N. America,AmeriFlux,63.1534,-123.2522,TRUE,TRUE,Undisturbed,TRUE,FALSE,FALSE,FALSE,FALSE,FALSE,FALSE,FALSE,FALSE,FALSE,FALSE,FALSE,FALSE
CA-TP1,ENF,N. America,AmeriFlux;Fluxnet-Canada;Phenocam,42.6609,-80.5595,TRUE,TRUE,Forestry; Pests and disease,TRUE,FALSE,FALSE,FALSE,FALSE,FALSE,FALSE,FALSE,FALSE,TRUE,FALSE,TRUE,FALSE
CA-TP2,ENF,N. America,AmeriFlux;Fluxnet-Canada,42.7744,-80.4588,TRUE,TRUE,Forestry,TRUE,FALSE,FALSE,FALSE,FALSE,FALSE,FALSE,FALSE,FALSE,TRUE,FALSE,TRUE,FALSE
CA-TP3,ENF,N. America,AmeriFlux;Fluxnet-Canada;Phenocam,42.7068,-80.3483,TRUE,TRUE,Forestry,TRUE,FALSE,FALSE,FALSE,FALSE,FALSE,FALSE,FALSE,FALSE,TRUE,FALSE,TRUE,FALSE
CA-TP4,ENF,N. America,AmeriFlux;Fluxnet-Canada;Phenocam,42.7102,-80.3574,TRUE,TRUE,Forestry,TRUE,FALSE,FALSE,FALSE,FALSE,FALSE,FALSE,FALSE,FALSE,TRUE,FALSE,TRUE,FALSE
CA-TPA,CRO,N. America,AmeriFlux,42.6947,-80.3487,TRUE,FALSE,NA,TRUE,FALSE,FALSE,FALSE,FALSE,FALSE,FALSE,FALSE,TRUE,FALSE,FALSE,TRUE,FALSE
CA-TPD,DBF,N. America,AmeriFlux;Fluxnet-Canada;Phenocam,42.6353,-80.5577,TRUE,TRUE,Forestry,TRUE,FALSE,FALSE,FALSE,FALSE,FALSE,TRUE,FALSE,FALSE,FALSE,FALSE,TRUE,FALSE
CA-TVC,OSH,N. America,AmeriFlux,68.7462,-133.5017,TRUE,TRUE,Undisturbed,TRUE,FALSE,FALSE,FALSE,FALSE,FALSE,FALSE,FALSE,FALSE,FALSE,FALSE,FALSE,FALSE
CD-Ygb,MF,Africa,European Fluxes Database;ICOS,0.814444,24.502472,TRUE,FALSE,NA,TRUE,FALSE,FALSE,FALSE,FALSE,FALSE,FALSE,FALSE,FALSE,FALSE,FALSE,FALSE,FALSE
CG-Tch,SAV,Africa,CarboAfrica;European Fluxes Database,-4.2891665,11.656417,TRUE,FALSE,NA,FALSE,FALSE,FALSE,FALSE,FALSE,FALSE,FALSE,FALSE,FALSE,FALSE,FALSE,FALSE,FALSE
CH-Aws,GRA,Europe,CarboExtreme;European Fluxes Database;GHG-Europe;Swiss FluxNet,46.58311,9.790639,TRUE,FALSE,NA,FALSE,FALSE,FALSE,FALSE,FALSE,FALSE,FALSE,FALSE,FALSE,FALSE,FALSE,FALSE,FALSE
CH-Cha,GRA,Europe,CarboExtreme;European Fluxes Database;GHG-Europe;Swiss FluxNet,47.21022,8.410444,TRUE,FALSE,NA,FALSE,FALSE,FALSE,FALSE,FALSE,FALSE,FALSE,FALSE,FALSE,FALSE,FALSE,FALSE,FALSE
CH-Crs,GRA,Europe,European Fluxes Database,47.0436,7.0475,TRUE,FALSE,NA,TRUE,FALSE,FALSE,FALSE,FALSE,FALSE,FALSE,FALSE,TRUE,FALSE,FALSE,TRUE,FALSE
CH-Dav,ENF,Europe,European Fluxes Database;ICOS,46.81533,9.85591,TRUE,FALSE,NA,TRUE,FALSE,TRUE,FALSE,FALSE,FALSE,FALSE,FALSE,FALSE,FALSE,FALSE,TRUE,FALSE
CH-For,CRO,Europe,European Fluxes Database,46.527206,6.7595406,TRUE,FALSE,NA,TRUE,FALSE,FALSE,FALSE,FALSE,FALSE,FALSE,FALSE,FALSE,FALSE,FALSE,FALSE,FALSE
CH-Frk,GRA,Europe,European Fluxes Database,46.577637,8.421592,TRUE,FALSE,NA,TRUE,FALSE,FALSE,FALSE,FALSE,FALSE,FALSE,FALSE,FALSE,FALSE,FALSE,FALSE,FALSE
CH-Fru,GRA,Europe,CarboExtreme;European Fluxes Database;GHG-Europe;Swiss FluxNet,47.115833,8.537778,TRUE,FALSE,NA,FALSE,FALSE,FALSE,FALSE,FALSE,FALSE,FALSE,FALSE,FALSE,FALSE,FALSE,FALSE,FALSE
CH-Lae,MF,Europe,CarboEuropeIP;European Fluxes Database;GHG-Europe;Swiss FluxNet,47.478333,8.364389,TRUE,FALSE,NA,FALSE,FALSE,FALSE,FALSE,FALSE,FALSE,FALSE,FALSE,FALSE,FALSE,FALSE,FALSE,FALSE
CH-Oe1,GRA,Europe,CarboEuropeIP;European Fluxes Database;GreenGrass;Swiss FluxNet,47.28583,7.731944,TRUE,FALSE,NA,TRUE,FALSE,FALSE,TRUE,FALSE,FALSE,FALSE,FALSE,FALSE,FALSE,FALSE,TRUE,FALSE
CH-Oe2,CRO,Europe,CarboEuropeIP;European Fluxes Database;GHG-Europe;Swiss FluxNet,47.286415,7.73375,TRUE,FALSE,NA,TRUE,FALSE,FALSE,FALSE,FALSE,FALSE,FALSE,FALSE,FALSE,FALSE,FALSE,FALSE,FALSE
CH-Oe3,GRA,Europe,European Fluxes Database,47.28542,7.732438,TRUE,FALSE,NA,TRUE,FALSE,FALSE,FALSE,FALSE,FALSE,FALSE,FALSE,FALSE,FALSE,FALSE,FALSE,FALSE
CH-Rh1,GRA,Europe,European Fluxes Database,47.3,9.5,TRUE,FALSE,NA,TRUE,FALSE,FALSE,FALSE,FALSE,FALSE,FALSE,FALSE,TRUE,FALSE,FALSE,TRUE,FALSE
CH-Rh2,GRA,Europe,European Fluxes Database,47.3,9.5,TRUE,FALSE,NA,TRUE,FALSE,FALSE,FALSE,FALSE,FALSE,FALSE,FALSE,FALSE,FALSE,FALSE,FALSE,FALSE
CH-Rtb,GRA,Europe,European Fluxes Database,47.3804,8.9934,TRUE,FALSE,NA,TRUE,FALSE,FALSE,FALSE,TRUE,FALSE,FALSE,FALSE,FALSE,FALSE,FALSE,TRUE,FALSE
CH-Tnk,CRO,Europe,European Fluxes Database,47.48058,8.911775,TRUE,FALSE,NA,TRUE,FALSE,FALSE,TRUE,FALSE,FALSE,FALSE,FALSE,FALSE,FALSE,FALSE,TRUE,FALSE
CL-ACF,ENF,S. America,AmeriFlux,-40.1726,-73.4439,TRUE,TRUE,Fire,TRUE,FALSE,FALSE,FALSE,FALSE,FALSE,FALSE,TRUE,FALSE,FALSE,FALSE,TRUE,FALSE
CL-SDF,EBF,S. America,AmeriFlux,-41.883,-73.676,TRUE,TRUE,Forestry,TRUE,FALSE,FALSE,FALSE,FALSE,FALSE,FALSE,FALSE,FALSE,TRUE,FALSE,TRUE,FALSE
CL-SDP,WET,S. America,AmeriFlux,-41.879,-73.666,TRUE,TRUE,Agriculture; Grazing,TRUE,FALSE,FALSE,FALSE,TRUE,FALSE,FALSE,TRUE,FALSE,FALSE,FALSE,TRUE,FALSE
CN-Aro,GRA,Asia,ChinaFLUX,38.04734,100.46432,TRUE,FALSE,NA,TRUE,FALSE,FALSE,FALSE,FALSE,FALSE,FALSE,FALSE,FALSE,FALSE,FALSE,FALSE,FALSE
CN-Ash,EBF,Asia,ChinaFLUX,24.53806,101.02917,TRUE,FALSE,NA,FALSE,FALSE,FALSE,FALSE,FALSE,FALSE,FALSE,FALSE,FALSE,FALSE,FALSE,FALSE,FALSE
CN-BeO,MF,Asia,ChinaFLUX,40.02621,116.39143,TRUE,FALSE,NA,FALSE,FALSE,FALSE,FALSE,FALSE,FALSE,FALSE,FALSE,FALSE,FALSE,FALSE,FALSE,FALSE
CN-DaW,WET,Asia,ChinaFLUX,30.4691,91.0624,TRUE,FALSE,NA,FALSE,FALSE,FALSE,FALSE,FALSE,FALSE,FALSE,FALSE,FALSE,FALSE,FALSE,FALSE,FALSE
CN-Dan,GRA,Asia,ChinaFLUX,30.4978,91.0664,TRUE,FALSE,NA,FALSE,FALSE,FALSE,FALSE,FALSE,FALSE,FALSE,FALSE,FALSE,FALSE,FALSE,FALSE,FALSE
CN-Dda,GRA,Asia,ChinaFLUX,41.64397,110.33147,TRUE,FALSE,NA,TRUE,FALSE,FALSE,FALSE,FALSE,FALSE,FALSE,FALSE,FALSE,FALSE,FALSE,FALSE,FALSE
CN-Din,EBF,Asia,ChinaFLUX,23.1733,112.5361,TRUE,FALSE,NA,TRUE,FALSE,FALSE,FALSE,FALSE,FALSE,FALSE,FALSE,FALSE,FALSE,FALSE,FALSE,FALSE
CN-Dmn,CRO,Asia,ChinaFLUX,38.85551,100.37223,TRUE,FALSE,NA,TRUE,FALSE,FALSE,FALSE,FALSE,FALSE,FALSE,FALSE,FALSE,FALSE,FALSE,FALSE,FALSE
CN-Dsh,GRA,Asia,ChinaFLUX,38.83992,98.9406,TRUE,FALSE,NA,TRUE,FALSE,FALSE,FALSE,FALSE,FALSE,FALSE,FALSE,FALSE,FALSE,FALSE,FALSE,FALSE
CN-Du2,GRA,Asia,ChinaFLUX,42.0467,116.2836,TRUE,FALSE,NA,FALSE,FALSE,FALSE,FALSE,FALSE,FALSE,FALSE,FALSE,FALSE,FALSE,FALSE,FALSE,FALSE
CN-Dzo,EBF,Asia,ChinaFLUX,19.546,109.475,TRUE,FALSE,NA,FALSE,FALSE,FALSE,FALSE,FALSE,FALSE,FALSE,FALSE,FALSE,FALSE,FALSE,FALSE,FALSE
CN-Erg,GRA,Asia,ChinaFLUX,50.1869,119.3889,TRUE,FALSE,NA,TRUE,FALSE,FALSE,FALSE,FALSE,FALSE,FALSE,FALSE,FALSE,FALSE,FALSE,FALSE,FALSE
CN-GuT,GRA,Asia,ChinaFLUX,34.35481,100.4872,TRUE,FALSE,NA,TRUE,FALSE,FALSE,FALSE,FALSE,FALSE,FALSE,FALSE,FALSE,FALSE,FALSE,FALSE,FALSE
CN-Ha2,OSH,Asia,ChinaFLUX,37.6086,101.3269,TRUE,FALSE,NA,TRUE,FALSE,FALSE,FALSE,FALSE,FALSE,FALSE,FALSE,FALSE,FALSE,FALSE,FALSE,FALSE
CN-HaM,GRA,Asia,AsiaFlux;JapanFlux,37.607433,101.332,TRUE,FALSE,NA,TRUE,FALSE,FALSE,FALSE,FALSE,FALSE,FALSE,FALSE,FALSE,FALSE,FALSE,FALSE,FALSE
CN-HaW,WET,Asia,ChinaFLUX,37.607655,101.32899,TRUE,FALSE,NA,TRUE,FALSE,FALSE,FALSE,FALSE,FALSE,FALSE,FALSE,FALSE,FALSE,FALSE,FALSE,FALSE
CN-HeD,BSV,Asia,ChinaFLUX,42.1135,100.9872,TRUE,FALSE,NA,TRUE,FALSE,FALSE,FALSE,FALSE,FALSE,FALSE,FALSE,FALSE,FALSE,FALSE,FALSE,FALSE
CN-HeM,DBF,Asia,ChinaFLUX,41.99029,101.13349,TRUE,FALSE,NA,TRUE,FALSE,FALSE,FALSE,FALSE,FALSE,FALSE,FALSE,FALSE,FALSE,FALSE,FALSE,FALSE
CN-Huz,BSV,Asia,ChinaFLUX,38.76519,100.3186,TRUE,FALSE,NA,TRUE,FALSE,FALSE,FALSE,FALSE,FALSE,FALSE,FALSE,FALSE,FALSE,FALSE,FALSE,FALSE
CN-Jng,GRA,Asia,ChinaFLUX,37.83869,101.1145,TRUE,FALSE,NA,TRUE,FALSE,FALSE,FALSE,FALSE,FALSE,FALSE,FALSE,FALSE,FALSE,FALSE,FALSE,FALSE
CN-Jzh,CRO,Asia,ChinaFLUX,41.14806,121.20167,TRUE,FALSE,NA,FALSE,FALSE,FALSE,FALSE,FALSE,FALSE,FALSE,FALSE,FALSE,FALSE,FALSE,FALSE,FALSE
CN-Lch,CRO,Asia,NA,37.88936,114.69289,TRUE,FALSE,NA,FALSE,FALSE,FALSE,FALSE,FALSE,FALSE,FALSE,FALSE,FALSE,FALSE,FALSE,FALSE,FALSE
CN-Lsh,DNF,Asia,AsiaFlux;JapanFlux,45.27984,127.57821,TRUE,FALSE,NA,TRUE,FALSE,FALSE,FALSE,FALSE,FALSE,FALSE,FALSE,FALSE,FALSE,FALSE,FALSE,FALSE
CN-Mxn,MF,Asia,ChinaFLUX,31.6948,103.8951,TRUE,FALSE,NA,TRUE,FALSE,FALSE,FALSE,FALSE,FALSE,FALSE,FALSE,FALSE,FALSE,FALSE,FALSE,FALSE
CN-Nmn,CRO,Asia,ChinaFLUX,42.94611,120.72694,TRUE,FALSE,NA,TRUE,FALSE,FALSE,FALSE,FALSE,FALSE,FALSE,FALSE,FALSE,FALSE,FALSE,FALSE,FALSE
CN-Qng,DNF,Asia,ChinaFLUX,33.46807,108.49102,TRUE,FALSE,NA,FALSE,FALSE,FALSE,FALSE,FALSE,FALSE,FALSE,FALSE,FALSE,FALSE,FALSE,FALSE,FALSE
CN-Sb1,DNF,Asia,Unaffiliated,42.40907,117.31461,TRUE,FALSE,NA,TRUE,FALSE,FALSE,FALSE,FALSE,FALSE,FALSE,FALSE,FALSE,FALSE,FALSE,FALSE,FALSE
CN-Sb2,ENF,Asia,Unaffiliated,42.39117,117.37017,TRUE,FALSE,NA,TRUE,FALSE,FALSE,FALSE,FALSE,FALSE,FALSE,FALSE,FALSE,FALSE,FALSE,FALSE,FALSE
CN-Sdq,OSH,Asia,ChinaFLUX,42.00119,101.13741,TRUE,FALSE,NA,TRUE,FALSE,FALSE,FALSE,FALSE,FALSE,FALSE,FALSE,FALSE,FALSE,FALSE,FALSE,FALSE
CN-SnB,WET,Asia,USCCC,31.6905,121.6563,TRUE,FALSE,NA,TRUE,FALSE,FALSE,FALSE,FALSE,FALSE,FALSE,FALSE,FALSE,FALSE,FALSE,FALSE,FALSE
CN-Wnb,BSV,Asia,ChinaFLUX,40.42876,106.74229,TRUE,FALSE,NA,TRUE,FALSE,FALSE,FALSE,FALSE,FALSE,FALSE,FALSE,FALSE,FALSE,FALSE,FALSE,FALSE
CN-Xi2,GRA,Asia,ChinaFLUX,43.55444,116.6714,TRUE,FALSE,NA,TRUE,FALSE,FALSE,FALSE,FALSE,FALSE,FALSE,FALSE,FALSE,FALSE,FALSE,FALSE,FALSE
CN-YaS,OSH,Asia,ChinaFLUX,37.70877,107.22655,TRUE,FALSE,NA,FALSE,FALSE,FALSE,FALSE,FALSE,FALSE,FALSE,FALSE,FALSE,FALSE,FALSE,FALSE,FALSE
CN-Yan,OSH,Asia,NA,37.82861,107.49278,TRUE,FALSE,NA,FALSE,FALSE,FALSE,FALSE,FALSE,FALSE,FALSE,FALSE,FALSE,FALSE,FALSE,FALSE,FALSE
CN-You,GRA,Asia,ChinaFLUX,38.01419,100.24206,TRUE,FALSE,NA,TRUE,FALSE,FALSE,FALSE,FALSE,FALSE,FALSE,FALSE,FALSE,FALSE,FALSE,FALSE,FALSE
CN-Yuc,CRO,Asia,ChinaFLUX,36.8287,116.5701,TRUE,FALSE,NA,TRUE,FALSE,FALSE,FALSE,FALSE,FALSE,FALSE,FALSE,FALSE,FALSE,FALSE,FALSE,FALSE
CN-Zha,WET,Asia,ChinaFLUX,38.97514,100.4464,TRUE,FALSE,NA,TRUE,FALSE,FALSE,FALSE,FALSE,FALSE,FALSE,FALSE,FALSE,FALSE,FALSE,FALSE,FALSE
CR-AqC,EBF,S. America,Unaffiliated,9.938369,-83.7289,TRUE,FALSE,NA,TRUE,TRUE,TRUE,TRUE,FALSE,FALSE,FALSE,FALSE,FALSE,FALSE,FALSE,TRUE,FALSE
CR-Fsc,CRO,S. America,AmeriFlux,10.4189,-85.4732,TRUE,TRUE,Agriculture; Drought,TRUE,TRUE,FALSE,FALSE,FALSE,TRUE,FALSE,FALSE,FALSE,FALSE,FALSE,TRUE,FALSE
CZ-BK1,ENF,Europe,European Fluxes Database;ICOS,49.502075,18.536882,TRUE,FALSE,NA,TRUE,FALSE,FALSE,FALSE,FALSE,FALSE,FALSE,FALSE,FALSE,FALSE,FALSE,FALSE,FALSE
CZ-BK2,GRA,Europe,CarboEuropeIP;Carbomont;European Fluxes Database;GHG-Europe,49.49443,18.54285,TRUE,FALSE,NA,FALSE,FALSE,FALSE,FALSE,FALSE,FALSE,FALSE,FALSE,FALSE,FALSE,FALSE,FALSE,FALSE
CZ-KrP,CRO,Europe,European Fluxes Database,49.573257,15.078773,TRUE,FALSE,NA,FALSE,FALSE,FALSE,FALSE,FALSE,FALSE,FALSE,FALSE,FALSE,FALSE,FALSE,FALSE,FALSE
CZ-LnG,GRA,Europe,European Fluxes Database,48.704224,16.926247,TRUE,FALSE,NA,FALSE,FALSE,FALSE,FALSE,FALSE,FALSE,FALSE,FALSE,FALSE,FALSE,FALSE,FALSE,FALSE
CZ-Lnz,DBF,Europe,European Fluxes Database;ICOS,48.68155,16.946331,TRUE,FALSE,NA,TRUE,FALSE,FALSE,FALSE,FALSE,FALSE,FALSE,FALSE,FALSE,FALSE,FALSE,FALSE,FALSE
CZ-RAJ,ENF,Europe,European Fluxes Database,49.44372,16.696512,TRUE,FALSE,NA,FALSE,FALSE,FALSE,FALSE,FALSE,FALSE,FALSE,FALSE,FALSE,FALSE,FALSE,FALSE,FALSE
CZ-Stn,DBF,Europe,European Fluxes Database,49.035976,17.9699,TRUE,FALSE,NA,FALSE,FALSE,FALSE,FALSE,FALSE,FALSE,FALSE,FALSE,FALSE,FALSE,FALSE,FALSE,FALSE
CZ-wet,WET,Europe,European Fluxes Database;ICOS,49.02465,14.77035,TRUE,FALSE,NA,TRUE,FALSE,FALSE,FALSE,FALSE,FALSE,FALSE,FALSE,TRUE,FALSE,FALSE,TRUE,FALSE
DE-Akm,WET,Europe,European Fluxes Database,53.86617,13.68342,TRUE,FALSE,NA,FALSE,FALSE,FALSE,FALSE,FALSE,FALSE,FALSE,FALSE,FALSE,FALSE,FALSE,FALSE,FALSE
DE-Amv,WET,Europe,European Fluxes Database;ICOS,52.1757,6.95537,TRUE,FALSE,NA,TRUE,FALSE,FALSE,FALSE,FALSE,FALSE,FALSE,FALSE,TRUE,FALSE,FALSE,TRUE,FALSE
DE-Brs,CRO,Europe,European Fluxes Database;ICOS,52.29663,10.44871,TRUE,FALSE,NA,TRUE,FALSE,FALSE,FALSE,FALSE,FALSE,FALSE,FALSE,FALSE,FALSE,FALSE,FALSE,FALSE
DE-Etn,DBF,Europe,European Fluxes Database,48.268486,7.878243,TRUE,FALSE,NA,FALSE,FALSE,FALSE,FALSE,FALSE,FALSE,FALSE,FALSE,FALSE,FALSE,FALSE,FALSE,FALSE
DE-Fen,GRA,Europe,European Fluxes Database;ICOS,47.832905,11.060701,TRUE,FALSE,NA,TRUE,FALSE,FALSE,FALSE,TRUE,FALSE,FALSE,FALSE,TRUE,FALSE,FALSE,TRUE,FALSE
DE-Geb,CRO,Europe,European Fluxes Database;ICOS,51.09973,10.91463,TRUE,FALSE,NA,TRUE,FALSE,FALSE,FALSE,FALSE,FALSE,FALSE,FALSE,FALSE,FALSE,FALSE,FALSE,FALSE
DE-Gri,GRA,Europe,European Fluxes Database;ICOS,50.950005,13.512533,TRUE,FALSE,NA,TRUE,FALSE,FALSE,TRUE,TRUE,FALSE,FALSE,FALSE,FALSE,FALSE,FALSE,TRUE,FALSE
DE-GsB,GRA,Europe,European Fluxes Database;ICOS,52.029648,11.10478,TRUE,FALSE,NA,TRUE,FALSE,FALSE,FALSE,TRUE,FALSE,FALSE,FALSE,TRUE,FALSE,FALSE,TRUE,FALSE
DE-Gwg,GRA,Europe,European Fluxes Database;ICOS,47.570835,11.032604,TRUE,FALSE,NA,TRUE,FALSE,FALSE,FALSE,FALSE,FALSE,FALSE,FALSE,FALSE,FALSE,FALSE,FALSE,FALSE
DE-Hai,DBF,Europe,European Fluxes Database;ICOS,51.079212,10.452168,TRUE,FALSE,NA,TRUE,FALSE,FALSE,FALSE,FALSE,FALSE,FALSE,FALSE,FALSE,FALSE,FALSE,FALSE,FALSE
DE-Har,ENF,Europe,European Fluxes Database;ICOS,47.93391,7.59814,TRUE,FALSE,NA,TRUE,FALSE,FALSE,FALSE,FALSE,FALSE,FALSE,FALSE,FALSE,FALSE,FALSE,FALSE,TRUE
DE-Hdn,CRO,Europe,European Fluxes Database,53.86825,13.268543,TRUE,FALSE,NA,FALSE,FALSE,FALSE,FALSE,FALSE,FALSE,FALSE,FALSE,FALSE,FALSE,FALSE,FALSE,FALSE
DE-HoH,DBF,Europe,European Fluxes Database;ICOS,52.08656,11.22235,TRUE,FALSE,NA,TRUE,FALSE,FALSE,FALSE,FALSE,FALSE,FALSE,FALSE,FALSE,FALSE,FALSE,FALSE,FALSE
DE-Hte,WET,Europe,EuroFlux;European Fluxes Database,54.213055,12.179944,TRUE,FALSE,NA,TRUE,FALSE,FALSE,FALSE,FALSE,FALSE,FALSE,FALSE,TRUE,FALSE,FALSE,TRUE,FALSE
DE-Hzd,DBF,Europe,European Fluxes Database;ICOS,50.96381,13.48978,TRUE,FALSE,NA,TRUE,FALSE,FALSE,FALSE,FALSE,FALSE,FALSE,FALSE,FALSE,FALSE,FALSE,FALSE,FALSE
DE-Kli,CRO,Europe,European Fluxes Database;ICOS,50.893044,13.5223,TRUE,FALSE,NA,TRUE,TRUE,FALSE,TRUE,FALSE,FALSE,FALSE,FALSE,FALSE,FALSE,FALSE,TRUE,FALSE
DE-Lkb,ENF,Europe,European Fluxes Database;GHG-Europe,49.099617,13.3046665,TRUE,FALSE,NA,FALSE,FALSE,FALSE,FALSE,FALSE,FALSE,FALSE,FALSE,FALSE,FALSE,FALSE,FALSE,FALSE
DE-Lnf,DBF,Europe,European Fluxes Database;GHG-Europe;InGOS,51.328217,10.3678,TRUE,FALSE,NA,FALSE,FALSE,FALSE,FALSE,FALSE,FALSE,FALSE,FALSE,FALSE,FALSE,FALSE,FALSE,FALSE
DE-Msr,ENF,Europe,European Fluxes Database;ICOS,47.80918,11.456168,TRUE,FALSE,NA,TRUE,FALSE,FALSE,FALSE,FALSE,FALSE,FALSE,FALSE,TRUE,FALSE,FALSE,TRUE,FALSE
DE-Obe,ENF,Europe,CarboEuropeIP;European Fluxes Database,50.7864,13.72168,TRUE,FALSE,NA,FALSE,FALSE,FALSE,FALSE,FALSE,FALSE,FALSE,FALSE,FALSE,FALSE,FALSE,FALSE,FALSE
DE-Rns,CRO,Europe,European Fluxes Database,51.494953,9.932118,TRUE,FALSE,NA,TRUE,FALSE,FALSE,FALSE,FALSE,FALSE,FALSE,FALSE,FALSE,FALSE,FALSE,FALSE,FALSE
DE-RuC,OSH,Europe,European Fluxes Database,50.5031,6.336,TRUE,FALSE,NA,FALSE,FALSE,FALSE,FALSE,FALSE,FALSE,FALSE,FALSE,FALSE,FALSE,FALSE,FALSE,FALSE
DE-RuM,CRO,Europe,European Fluxes Database,50.929787,6.2969923,TRUE,FALSE,NA,TRUE,FALSE,FALSE,FALSE,FALSE,FALSE,FALSE,FALSE,FALSE,FALSE,FALSE,FALSE,FALSE
DE-RuR,GRA,Europe,European Fluxes Database;ICOS,50.621914,6.304126,TRUE,FALSE,NA,TRUE,FALSE,FALSE,FALSE,FALSE,FALSE,FALSE,FALSE,FALSE,FALSE,FALSE,FALSE,FALSE
DE-RuS,CRO,Europe,European Fluxes Database;ICOS,50.865906,6.4471445,TRUE,FALSE,NA,TRUE,FALSE,FALSE,FALSE,FALSE,FALSE,FALSE,FALSE,FALSE,FALSE,FALSE,FALSE,FALSE
DE-RuW,ENF,Europe,European Fluxes Database;ICOS,50.50493,6.3309627,TRUE,FALSE,NA,TRUE,FALSE,TRUE,FALSE,FALSE,FALSE,FALSE,FALSE,FALSE,FALSE,FALSE,TRUE,FALSE
DE-SbM,WET,Europe,European Fluxes Database,51.764927,10.51799,TRUE,FALSE,NA,TRUE,FALSE,FALSE,FALSE,FALSE,FALSE,FALSE,FALSE,FALSE,FALSE,FALSE,FALSE,FALSE
DE-Seh,CRO,Europe,CarboEuropeIP;European Fluxes Database,50.870625,6.449653,TRUE,FALSE,NA,FALSE,FALSE,FALSE,FALSE,FALSE,FALSE,FALSE,FALSE,FALSE,FALSE,FALSE,FALSE,FALSE
DE-SfS,WET,Europe,European Fluxes Database;TERENO,47.80629,11.32757,TRUE,FALSE,NA,TRUE,FALSE,TRUE,FALSE,FALSE,FALSE,FALSE,FALSE,FALSE,FALSE,FALSE,TRUE,FALSE
DE-Spw,WET,Europe,European Fluxes Database;IMECC,51.89225,14.03369,TRUE,FALSE,NA,TRUE,FALSE,FALSE,FALSE,FALSE,FALSE,FALSE,FALSE,FALSE,FALSE,FALSE,FALSE,FALSE
DE-Tha,ENF,Europe,European Fluxes Database;ICOS,50.962597,13.565333,TRUE,FALSE,NA,TRUE,FALSE,FALSE,FALSE,FALSE,FALSE,FALSE,FALSE,FALSE,FALSE,FALSE,FALSE,FALSE
DE-Zrk,WET,Europe,NA,53.875942,12.88901,TRUE,FALSE,NA,TRUE,FALSE,FALSE,FALSE,FALSE,FALSE,FALSE,FALSE,TRUE,FALSE,FALSE,TRUE,FALSE
DK-Eng,GRA,Europe,CarboEuropeIP;European Fluxes Database,55.69053,12.19175,FALSE,NA,NA,NA,NA,NA,NA,NA,NA,NA,NA,NA,NA,NA,NA,FALSE
DK-Fou,CRO,Europe,CarboEuropeIP;European Fluxes Database,56.4842,9.58722,FALSE,NA,NA,NA,NA,NA,NA,NA,NA,NA,NA,NA,NA,NA,NA,FALSE
DK-Gds,ENF,Europe,European Fluxes Database;ICOS,56.0737,9.3341,TRUE,FALSE,NA,TRUE,FALSE,FALSE,FALSE,FALSE,FALSE,FALSE,FALSE,FALSE,FALSE,FALSE,FALSE,FALSE
DK-RCW,DBF,Europe,European Fluxes Database;ICOS,55.680683,12.101398,TRUE,FALSE,NA,TRUE,FALSE,TRUE,TRUE,FALSE,FALSE,FALSE,FALSE,FALSE,FALSE,FALSE,TRUE,FALSE
DK-Skj,WET,Europe,European Fluxes Database;ICOS,55.91273,8.40481,TRUE,FALSE,NA,TRUE,FALSE,TRUE,FALSE,TRUE,FALSE,FALSE,FALSE,TRUE,FALSE,FALSE,TRUE,FALSE
DK-Sor,DBF,Europe,European Fluxes Database;ICOS,55.48587,11.644645,TRUE,FALSE,NA,TRUE,FALSE,FALSE,FALSE,FALSE,FALSE,FALSE,FALSE,FALSE,FALSE,FALSE,FALSE,FALSE
DK-Vng,CRO,Europe,European Fluxes Database;ICOS,56.037476,9.160709,TRUE,FALSE,NA,TRUE,FALSE,FALSE,FALSE,FALSE,FALSE,FALSE,FALSE,FALSE,FALSE,FALSE,FALSE,FALSE
EE-Pts,WET,Europe,European Fluxes Database;GHG-Europe,58.562298,24.369932,TRUE,FALSE,NA,TRUE,FALSE,TRUE,FALSE,FALSE,FALSE,FALSE,FALSE,TRUE,FALSE,FALSE,TRUE,FALSE
EE-Rng,WET,Europe,European Fluxes Database;GHG-Europe,57.913143,26.694048,TRUE,FALSE,NA,TRUE,FALSE,FALSE,FALSE,FALSE,FALSE,FALSE,FALSE,FALSE,FALSE,FALSE,FALSE,FALSE
EE-Stg,ENF,Europe,European Fluxes Database,58.023636,26.070753,TRUE,FALSE,NA,FALSE,FALSE,FALSE,FALSE,FALSE,FALSE,FALSE,FALSE,FALSE,FALSE,FALSE,FALSE,FALSE
ES-Abr,SAV,Europe,European Fluxes Database,38.70184,-6.785881,TRUE,FALSE,NA,FALSE,FALSE,FALSE,FALSE,FALSE,FALSE,FALSE,FALSE,FALSE,FALSE,FALSE,FALSE,FALSE
ES-Agu,OSH,Europe,CarboEuropeIP;European Fluxes Database;GHG-Europe,36.939384,-2.034044,TRUE,FALSE,NA,FALSE,FALSE,FALSE,FALSE,FALSE,FALSE,FALSE,FALSE,FALSE,FALSE,FALSE,FALSE,FALSE
ES-Amo,OSH,Europe,CarboEuropeIP;European Fluxes Database;GHG-Europe,36.833405,-2.2522173,TRUE,FALSE,NA,FALSE,FALSE,FALSE,FALSE,FALSE,FALSE,FALSE,FALSE,FALSE,FALSE,FALSE,FALSE,FALSE
ES-Cnd,WSA,Europe,European Fluxes Database,37.914997,-3.227659,TRUE,FALSE,NA,FALSE,FALSE,FALSE,FALSE,FALSE,FALSE,FALSE,FALSE,FALSE,FALSE,FALSE,FALSE,FALSE
ES-Crg,CSH,Europe,European Fluxes Database,39.11926,-0.95852,TRUE,FALSE,NA,FALSE,FALSE,FALSE,FALSE,FALSE,FALSE,FALSE,FALSE,FALSE,FALSE,FALSE,FALSE,FALSE
ES-Dnn,OSH,Europe,European Fluxes Database,36.9968,-6.5118,TRUE,FALSE,NA,TRUE,FALSE,FALSE,FALSE,FALSE,FALSE,FALSE,FALSE,FALSE,FALSE,FALSE,FALSE,FALSE
ES-FtD,WET,Europe,European Fluxes Database,36.99854,-6.434575,TRUE,FALSE,NA,TRUE,FALSE,FALSE,FALSE,FALSE,FALSE,FALSE,FALSE,FALSE,FALSE,FALSE,FALSE,FALSE
ES-Gdn,SAV,Europe,European Fluxes Database;GHG-Europe,37.91084,-3.228489,TRUE,FALSE,NA,TRUE,TRUE,FALSE,TRUE,FALSE,FALSE,FALSE,FALSE,FALSE,FALSE,FALSE,TRUE,FALSE
ES-HdD,SAV,Europe,European Fluxes Database,38.49679,-5.111296,TRUE,FALSE,NA,TRUE,FALSE,FALSE,FALSE,TRUE,FALSE,FALSE,FALSE,FALSE,FALSE,FALSE,TRUE,FALSE
ES-HeB,ENF,Europe,European Fluxes Database,38.40475,-1.726215,TRUE,FALSE,NA,TRUE,FALSE,FALSE,FALSE,FALSE,FALSE,FALSE,TRUE,FALSE,FALSE,FALSE,TRUE,FALSE
ES-Hen,ENF,Europe,European Fluxes Database,38.411087,-1.697534,TRUE,FALSE,NA,TRUE,FALSE,FALSE,FALSE,FALSE,FALSE,FALSE,FALSE,FALSE,FALSE,FALSE,FALSE,FALSE
ES-LJu,OSH,Europe,European Fluxes Database;GHG-Europe,36.926594,-2.752115,TRUE,FALSE,NA,FALSE,FALSE,FALSE,FALSE,FALSE,FALSE,FALSE,FALSE,FALSE,FALSE,FALSE,FALSE,FALSE
ES-LM1,SAV,Europe,European Fluxes Database,39.94269,-5.778683,TRUE,FALSE,NA,FALSE,FALSE,FALSE,FALSE,FALSE,FALSE,FALSE,FALSE,FALSE,FALSE,FALSE,FALSE,FALSE
ES-LM2,SAV,Europe,European Fluxes Database,39.934593,-5.775881,TRUE,FALSE,NA,FALSE,FALSE,FALSE,FALSE,FALSE,FALSE,FALSE,FALSE,FALSE,FALSE,FALSE,FALSE,FALSE
ES-LMa,SAV,Europe,European Fluxes Database;ICOS,39.94033,-5.77465,TRUE,FALSE,NA,TRUE,FALSE,FALSE,FALSE,FALSE,FALSE,FALSE,FALSE,FALSE,FALSE,FALSE,FALSE,FALSE
ES-Mcd,EBF,Europe,European Fluxes Database,39.58819,-0.39969,TRUE,FALSE,NA,FALSE,FALSE,FALSE,FALSE,FALSE,FALSE,FALSE,FALSE,FALSE,FALSE,FALSE,FALSE,FALSE
ES-MtB,OSH,Europe,European Fluxes Database,37.020206,-6.5544033,TRUE,FALSE,NA,TRUE,FALSE,FALSE,FALSE,FALSE,FALSE,FALSE,FALSE,FALSE,FALSE,FALSE,FALSE,FALSE
ES-MtN,CSH,Europe,European Fluxes Database,36.99234,-6.4826016,TRUE,FALSE,NA,TRUE,FALSE,FALSE,FALSE,FALSE,FALSE,FALSE,FALSE,FALSE,FALSE,FALSE,FALSE,FALSE
ES-Mzn,EBF,Europe,European Fluxes Database,40.089497,-0.827409,TRUE,FALSE,NA,FALSE,FALSE,FALSE,FALSE,FALSE,FALSE,FALSE,FALSE,FALSE,FALSE,FALSE,FALSE,FALSE
ES-Pdu,WET,Europe,European Fluxes Database;GHG-Europe;InGOS,37.016975,-3.609228,FALSE,NA,NA,NA,NA,NA,NA,NA,NA,NA,NA,NA,NA,NA,NA,FALSE
ES-Pzb,GRA,Europe,European Fluxes Database,38.362118,-4.767329,TRUE,FALSE,NA,TRUE,FALSE,FALSE,FALSE,TRUE,FALSE,FALSE,FALSE,FALSE,FALSE,FALSE,TRUE,FALSE
ES-Srn,EBF,Europe,European Fluxes Database,40.15047,-0.8380832,TRUE,FALSE,NA,FALSE,FALSE,FALSE,FALSE,FALSE,FALSE,FALSE,FALSE,FALSE,FALSE,FALSE,FALSE,FALSE
ES-TzM,DBF,Europe,European Fluxes Database,39.265785,-1.9397246,TRUE,FALSE,NA,FALSE,FALSE,FALSE,FALSE,FALSE,FALSE,FALSE,FALSE,FALSE,FALSE,FALSE,FALSE,FALSE
ES-VDA,GRA,Europe,CarboEuropeIP;Carbomont;European Fluxes Database,42.15111,1.4473800000000001,TRUE,FALSE,NA,FALSE,FALSE,FALSE,FALSE,FALSE,FALSE,FALSE,FALSE,FALSE,FALSE,FALSE,FALSE,FALSE
ES-Yst,ENF,Europe,European Fluxes Database;GHG-Europe,38.338932,-2.3506052,TRUE,FALSE,NA,TRUE,FALSE,FALSE,FALSE,FALSE,FALSE,FALSE,TRUE,FALSE,FALSE,FALSE,TRUE,FALSE
FI-Ant,GRA,Europe,European Fluxes Database;ICOS,63.16347,27.234991,TRUE,FALSE,NA,TRUE,TRUE,TRUE,TRUE,FALSE,FALSE,FALSE,FALSE,FALSE,FALSE,FALSE,TRUE,FALSE
FI-Hyy,ENF,Europe,European Fluxes Database;ICOS,61.847410000000004,24.29477,TRUE,FALSE,NA,TRUE,FALSE,FALSE,FALSE,FALSE,FALSE,FALSE,FALSE,FALSE,FALSE,FALSE,FALSE,FALSE
FI-Jok,CRO,Europe,European Fluxes Database;GHG-Europe,60.8986,23.51345,TRUE,FALSE,NA,FALSE,FALSE,FALSE,FALSE,FALSE,FALSE,FALSE,FALSE,FALSE,FALSE,FALSE,FALSE,FALSE
FI-Ken,ENF,Europe,European Fluxes Database;ICOS,67.98721,24.24301,TRUE,FALSE,NA,TRUE,FALSE,TRUE,FALSE,FALSE,FALSE,FALSE,FALSE,FALSE,FALSE,FALSE,TRUE,FALSE
FI-Let,ENF,Europe,European Fluxes Database;ICOS,60.64183,23.95952,TRUE,FALSE,NA,TRUE,TRUE,FALSE,FALSE,FALSE,FALSE,FALSE,FALSE,TRUE,FALSE,FALSE,TRUE,FALSE
FI-Nsv,CVM,Europe,European Fluxes Database,62.8639,24.08382,TRUE,FALSE,NA,TRUE,FALSE,FALSE,TRUE,FALSE,FALSE,FALSE,FALSE,TRUE,FALSE,FALSE,TRUE,FALSE
FI-Pap,CRO,Europe,European Fluxes Database,63.13806,27.246117,TRUE,FALSE,NA,TRUE,TRUE,TRUE,TRUE,FALSE,FALSE,FALSE,FALSE,FALSE,FALSE,FALSE,TRUE,FALSE
FI-Qvd,CRO,Europe,European Fluxes Database,60.295242,22.391607,TRUE,FALSE,NA,TRUE,TRUE,FALSE,FALSE,FALSE,FALSE,FALSE,FALSE,FALSE,FALSE,FALSE,TRUE,FALSE
FI-Rk2,ENF,Europe,European Fluxes Database,61.182884,25.262684,TRUE,FALSE,NA,TRUE,TRUE,FALSE,FALSE,FALSE,FALSE,FALSE,FALSE,TRUE,FALSE,FALSE,TRUE,FALSE
FI-Ruk,CRO,Europe,European Fluxes Database,64.68398,25.106318,TRUE,FALSE,NA,TRUE,FALSE,FALSE,FALSE,FALSE,FALSE,FALSE,FALSE,TRUE,FALSE,FALSE,TRUE,FALSE
FI-Sar,CRO,Europe,European Fluxes Database,63.15143,27.199064,TRUE,FALSE,NA,TRUE,TRUE,TRUE,TRUE,FALSE,FALSE,FALSE,FALSE,FALSE,FALSE,FALSE,TRUE,FALSE
FI-Sii,WET,Europe,European Fluxes Database;ICOS,61.83265,24.19285,TRUE,FALSE,NA,TRUE,FALSE,FALSE,FALSE,FALSE,FALSE,FALSE,FALSE,FALSE,FALSE,FALSE,FALSE,FALSE
FI-Sod,ENF,Europe,European Fluxes Database;ICOS,67.36239,26.63859,TRUE,FALSE,NA,TRUE,FALSE,FALSE,FALSE,FALSE,FALSE,FALSE,TRUE,FALSE,FALSE,FALSE,TRUE,FALSE
FI-Var,ENF,Europe,European Fluxes Database;ICOS,67.7549,29.61,TRUE,FALSE,NA,TRUE,FALSE,FALSE,FALSE,FALSE,FALSE,FALSE,TRUE,FALSE,FALSE,FALSE,TRUE,FALSE
FR-Aur,CRO,Europe,European Fluxes Database;ICOS,43.54965,1.106103,TRUE,FALSE,NA,TRUE,FALSE,FALSE,TRUE,FALSE,TRUE,FALSE,FALSE,FALSE,FALSE,FALSE,TRUE,FALSE
FR-Bil,ENF,Europe,European Fluxes Database;ICOS,44.493652,-0.956092,TRUE,FALSE,NA,TRUE,FALSE,FALSE,FALSE,FALSE,FALSE,FALSE,FALSE,FALSE,FALSE,FALSE,FALSE,FALSE
FR-CLt,GRA,Europe,European Fluxes Database;ICOS,45.0414,6.41053,TRUE,FALSE,NA,TRUE,FALSE,FALSE,FALSE,FALSE,FALSE,FALSE,FALSE,FALSE,FALSE,FALSE,FALSE,FALSE
FR-EM2,CRO,Europe,European Fluxes Database;ICOS,49.87211,3.02065,TRUE,FALSE,NA,TRUE,FALSE,FALSE,FALSE,FALSE,FALSE,FALSE,FALSE,FALSE,FALSE,FALSE,FALSE,FALSE
FR-FBn,ENF,Europe,European Fluxes Database;ICOS,43.24079,5.67865,TRUE,FALSE,NA,TRUE,FALSE,FALSE,FALSE,FALSE,FALSE,FALSE,FALSE,FALSE,FALSE,FALSE,FALSE,FALSE
FR-Fon,DBF,Europe,European Fluxes Database;ICOS,48.476357,2.780096,TRUE,FALSE,NA,TRUE,FALSE,FALSE,FALSE,FALSE,FALSE,FALSE,FALSE,FALSE,FALSE,FALSE,FALSE,FALSE
FR-Gri,CRO,Europe,European Fluxes Database;ICOS,48.84422,1.95191,TRUE,FALSE,NA,TRUE,FALSE,FALSE,FALSE,TRUE,FALSE,FALSE,FALSE,FALSE,FALSE,FALSE,TRUE,FALSE
FR-Hes,DBF,Europe,European Fluxes Database;ICOS,48.6741,7.06465,TRUE,FALSE,NA,TRUE,FALSE,FALSE,FALSE,FALSE,FALSE,FALSE,FALSE,FALSE,FALSE,FALSE,FALSE,FALSE
FR-LBr,ENF,Europe,CarboEuroFlux;CarboEuropeIP;CarboExtreme;EuroFlux;European Fluxes Database;GHG-Europe,44.71711,-0.7693,TRUE,FALSE,NA,FALSE,FALSE,FALSE,FALSE,FALSE,FALSE,FALSE,FALSE,FALSE,FALSE,FALSE,FALSE,FALSE
FR-LGt,WET,Europe,European Fluxes Database;ICOS,47.322918,2.284102,TRUE,FALSE,NA,TRUE,FALSE,FALSE,FALSE,FALSE,FALSE,FALSE,FALSE,TRUE,FALSE,FALSE,TRUE,FALSE
FR-Lam,CRO,Europe,European Fluxes Database;ICOS,43.496437,1.237878,TRUE,FALSE,NA,TRUE,FALSE,FALSE,FALSE,FALSE,FALSE,FALSE,FALSE,FALSE,FALSE,FALSE,FALSE,FALSE
FR-Lqu,GRA,Europe,European Fluxes Database;ICOS,45.6444,2.7349,TRUE,FALSE,NA,TRUE,FALSE,FALSE,FALSE,TRUE,FALSE,FALSE,FALSE,FALSE,FALSE,FALSE,TRUE,FALSE
FR-Lus,GRA,Europe,European Fluxes Database;ICOS,46.414246,0.1206518,TRUE,FALSE,NA,TRUE,FALSE,FALSE,FALSE,TRUE,FALSE,FALSE,FALSE,FALSE,FALSE,FALSE,TRUE,FALSE
FR-Mau,GRA,Europe,European Fluxes Database;GHG-Europe,43.385,1.29306,TRUE,FALSE,NA,FALSE,FALSE,FALSE,FALSE,FALSE,FALSE,FALSE,FALSE,FALSE,FALSE,FALSE,FALSE,FALSE
FR-Mej,GRA,Europe,European Fluxes Database;ICOS,48.1184,-1.79635,TRUE,FALSE,NA,TRUE,FALSE,TRUE,TRUE,TRUE,FALSE,FALSE,FALSE,FALSE,FALSE,FALSE,TRUE,FALSE
FR-Nzn,GRA,Europe,European Fluxes Database,48.005814,-2.81721,TRUE,FALSE,NA,TRUE,FALSE,FALSE,FALSE,FALSE,FALSE,FALSE,FALSE,FALSE,FALSE,FALSE,FALSE,FALSE
FR-Pue,EBF,Europe,European Fluxes Database;ICOS,43.7413,3.5957,TRUE,FALSE,NA,TRUE,FALSE,FALSE,FALSE,FALSE,FALSE,FALSE,FALSE,FALSE,FALSE,FALSE,FALSE,FALSE
FR-Tou,GRA,Europe,European Fluxes Database;ICOS,43.572857,1.37474,TRUE,FALSE,NA,TRUE,FALSE,FALSE,FALSE,FALSE,FALSE,FALSE,FALSE,FALSE,FALSE,FALSE,FALSE,FALSE
GF-Guy,EBF,S. America,European Fluxes Database;ICOS,5.2787,-52.9248,TRUE,FALSE,NA,TRUE,FALSE,FALSE,FALSE,FALSE,FALSE,FALSE,FALSE,FALSE,FALSE,FALSE,FALSE,TRUE
GH-Ank,EBF,Africa,CarboAfrica;European Fluxes Database,5.268543,-2.694206,TRUE,FALSE,NA,FALSE,FALSE,FALSE,FALSE,FALSE,FALSE,FALSE,FALSE,FALSE,FALSE,FALSE,FALSE,FALSE
GL-Dsk,OSH,N. America,European Fluxes Database;ICOS,69.25349,-53.51413,TRUE,FALSE,NA,TRUE,FALSE,TRUE,FALSE,FALSE,FALSE,FALSE,FALSE,FALSE,FALSE,FALSE,TRUE,FALSE
GL-NuF,WET,N. America,European Fluxes Database;ICOS,64.130936,-51.386066,TRUE,FALSE,NA,TRUE,FALSE,FALSE,FALSE,FALSE,FALSE,FALSE,FALSE,FALSE,FALSE,FALSE,FALSE,FALSE
GL-ZaF,WET,N. America,European Fluxes Database;ICOS,74.48152,-20.555773,TRUE,FALSE,NA,TRUE,FALSE,FALSE,FALSE,FALSE,FALSE,FALSE,FALSE,FALSE,FALSE,FALSE,FALSE,FALSE
GL-ZaH,GRA,N. America,European Fluxes Database;ICOS,74.4733,-20.550869,TRUE,FALSE,NA,TRUE,FALSE,FALSE,FALSE,FALSE,FALSE,FALSE,FALSE,FALSE,FALSE,FALSE,FALSE,FALSE
ID-JOP,EBF,Asia,AsiaFlux,-1.69306,103.39139,TRUE,FALSE,NA,TRUE,FALSE,FALSE,TRUE,FALSE,FALSE,FALSE,FALSE,FALSE,FALSE,FALSE,TRUE,FALSE
ID-PaB,OSH,Asia,AsiaFlux;JapanFlux,-2.340796,114.0379,TRUE,FALSE,NA,TRUE,FALSE,FALSE,FALSE,FALSE,FALSE,FALSE,TRUE,TRUE,FALSE,FALSE,TRUE,FALSE
ID-PaD,EBF,Asia,AsiaFlux;JapanFlux,-2.3460708,114.03641,TRUE,FALSE,NA,FALSE,FALSE,FALSE,FALSE,FALSE,FALSE,FALSE,FALSE,FALSE,FALSE,FALSE,FALSE,FALSE
ID-Pag,EBF,Asia,AsiaFlux;JapanFlux,-2.3239167,113.90439,TRUE,FALSE,NA,TRUE,FALSE,FALSE,FALSE,FALSE,FALSE,FALSE,FALSE,TRUE,FALSE,FALSE,TRUE,FALSE
IE-CaC,CRO,Europe,European Fluxes Database,52.85879,-6.918136,TRUE,FALSE,NA,TRUE,FALSE,FALSE,FALSE,FALSE,FALSE,FALSE,FALSE,FALSE,FALSE,FALSE,FALSE,FALSE
IE-CaN,CRO,Europe,European Fluxes Database,52.85879,-6.918136,TRUE,FALSE,NA,TRUE,FALSE,FALSE,FALSE,FALSE,FALSE,FALSE,FALSE,FALSE,FALSE,FALSE,FALSE,FALSE
IE-Cra,WET,Europe,European Fluxes Database;ICOS,53.32308,-7.64177,TRUE,FALSE,NA,TRUE,FALSE,FALSE,FALSE,FALSE,FALSE,FALSE,FALSE,FALSE,FALSE,FALSE,FALSE,FALSE
IE-Gwr,CRO,Europe,European Fluxes Database,52.6365,-7.011306,TRUE,FALSE,NA,FALSE,FALSE,FALSE,FALSE,FALSE,FALSE,FALSE,FALSE,FALSE,FALSE,FALSE,FALSE,FALSE
IL-RmH,EBF,Asia,European Fluxes Database,32.5555,34.947285,TRUE,FALSE,NA,FALSE,FALSE,FALSE,FALSE,FALSE,FALSE,FALSE,FALSE,FALSE,FALSE,FALSE,FALSE,FALSE
IL-Yat,ENF,Asia,CarboEuroFlux;CarboEuropeIP;European Fluxes Database,31.345045,35.051987,TRUE,FALSE,NA,TRUE,FALSE,FALSE,FALSE,TRUE,TRUE,FALSE,TRUE,FALSE,FALSE,FALSE,TRUE,FALSE
IT-Arz,OSH,Europe,European Fluxes Database,45.61902,10.00228,TRUE,FALSE,NA,TRUE,TRUE,FALSE,FALSE,FALSE,FALSE,FALSE,FALSE,FALSE,FALSE,FALSE,TRUE,FALSE
IT-BCi,CRO,Europe,European Fluxes Database;ICOS,40.52375,14.957444,TRUE,FALSE,NA,TRUE,FALSE,FALSE,FALSE,FALSE,FALSE,FALSE,FALSE,FALSE,FALSE,FALSE,FALSE,FALSE
IT-BFt,DBF,Europe,European Fluxes Database;ICOS,45.197754,10.741966,TRUE,FALSE,NA,TRUE,FALSE,FALSE,FALSE,FALSE,FALSE,FALSE,FALSE,FALSE,FALSE,FALSE,FALSE,FALSE
IT-BsB,DBF,Europe,European Fluxes Database,45.11823,7.161995,TRUE,FALSE,NA,FALSE,FALSE,FALSE,FALSE,FALSE,FALSE,FALSE,FALSE,FALSE,FALSE,FALSE,FALSE,FALSE
IT-Bsn,GRA,Europe,European Fluxes Database,45.11924,7.160429,TRUE,FALSE,NA,FALSE,FALSE,FALSE,FALSE,FALSE,FALSE,FALSE,FALSE,FALSE,FALSE,FALSE,FALSE,FALSE
IT-CA1,DBF,Europe,European Fluxes Database;GHG-Europe,42.38041,12.026561,TRUE,FALSE,NA,FALSE,FALSE,FALSE,FALSE,FALSE,FALSE,FALSE,FALSE,FALSE,FALSE,FALSE,FALSE,FALSE
IT-CA2,CRO,Europe,European Fluxes Database;GHG-Europe,42.37722,12.026039,TRUE,FALSE,NA,FALSE,FALSE,FALSE,FALSE,FALSE,FALSE,FALSE,FALSE,FALSE,FALSE,FALSE,FALSE,FALSE
IT-CA3,DBF,Europe,European Fluxes Database;GHG-Europe,42.38,12.0222,TRUE,FALSE,NA,FALSE,FALSE,FALSE,FALSE,FALSE,FALSE,FALSE,FALSE,FALSE,FALSE,FALSE,FALSE,FALSE
IT-Cp2,MF,Europe,European Fluxes Database;ICOS,41.704266,12.357293,TRUE,FALSE,NA,TRUE,FALSE,FALSE,FALSE,FALSE,FALSE,FALSE,FALSE,FALSE,FALSE,FALSE,FALSE,FALSE
IT-Lav,ENF,Europe,CarboEuroFlux;CarboEuropeIP;CarboItaly;European Fluxes Database;GHG-Europe,45.9562,11.28132,TRUE,FALSE,NA,FALSE,FALSE,FALSE,FALSE,FALSE,FALSE,FALSE,FALSE,FALSE,FALSE,FALSE,FALSE,FALSE
IT-Lsn,OSH,Europe,European Fluxes Database;ICOS,45.740482,12.750297,TRUE,FALSE,NA,TRUE,FALSE,FALSE,FALSE,FALSE,FALSE,FALSE,FALSE,FALSE,FALSE,FALSE,FALSE,FALSE
IT-MBo,GRA,Europe,European Fluxes Database;ICOS,46.01468,11.045831,TRUE,FALSE,NA,TRUE,FALSE,FALSE,TRUE,FALSE,FALSE,FALSE,FALSE,FALSE,FALSE,FALSE,TRUE,FALSE
IT-MtM,GRA,Europe,European Fluxes Database,46.687134,10.579597,FALSE,NA,NA,NA,NA,NA,NA,NA,NA,NA,NA,NA,NA,NA,NA,FALSE
IT-NiG,GRA,Europe,European Fluxes Database,45.51919,7.171434,TRUE,FALSE,NA,FALSE,FALSE,FALSE,FALSE,FALSE,FALSE,FALSE,FALSE,FALSE,FALSE,FALSE,FALSE,FALSE
IT-Niv,GRA,Europe,European Fluxes Database;ICOS,45.49091,7.13943,TRUE,FALSE,NA,TRUE,FALSE,FALSE,FALSE,TRUE,FALSE,FALSE,FALSE,FALSE,FALSE,FALSE,TRUE,FALSE
IT-Noe,CSH,Europe,European Fluxes Database;ICOS,40.606174,8.151694,TRUE,FALSE,NA,TRUE,FALSE,FALSE,FALSE,FALSE,FALSE,FALSE,FALSE,FALSE,FALSE,FALSE,FALSE,FALSE
IT-PT1,DBF,Europe,NA,45.20087,9.061039,FALSE,NA,NA,NA,NA,NA,NA,NA,NA,NA,NA,NA,NA,NA,NA,FALSE
IT-Ren,ENF,Europe,European Fluxes Database;ICOS,46.58686,11.43369,TRUE,FALSE,NA,TRUE,FALSE,FALSE,FALSE,FALSE,FALSE,FALSE,FALSE,FALSE,FALSE,FALSE,FALSE,FALSE
IT-SR2,ENF,Europe,European Fluxes Database;ICOS,43.73202,10.29091,TRUE,FALSE,NA,TRUE,FALSE,FALSE,FALSE,FALSE,FALSE,FALSE,FALSE,FALSE,FALSE,FALSE,FALSE,FALSE
IT-SRo,ENF,Europe,CarboEuroFlux;CarboEuropeIP;CarboExtreme;European Fluxes Database;Medeflu,43.72786,10.284445,TRUE,FALSE,NA,FALSE,FALSE,FALSE,FALSE,FALSE,FALSE,FALSE,FALSE,FALSE,FALSE,FALSE,FALSE,FALSE
IT-Tor,GRA,Europe,European Fluxes Database;ICOS,45.84444,7.578055,TRUE,FALSE,NA,TRUE,FALSE,FALSE,FALSE,FALSE,FALSE,FALSE,FALSE,FALSE,FALSE,FALSE,FALSE,FALSE
IT-TrF,DNF,Europe,European Fluxes Database;ICOS,45.82376,7.56089,TRUE,FALSE,NA,TRUE,FALSE,FALSE,FALSE,FALSE,FALSE,FALSE,FALSE,FALSE,FALSE,FALSE,FALSE,FALSE
JP-Api,DBF,Asia,AsiaFlux;JapanFlux,40.001358,140.93658,TRUE,FALSE,NA,TRUE,FALSE,FALSE,FALSE,FALSE,FALSE,FALSE,FALSE,FALSE,FALSE,FALSE,FALSE,FALSE
JP-BBY,WET,Asia,AsiaFlux;JapanFlux,43.322998,141.81065,TRUE,FALSE,NA,TRUE,FALSE,FALSE,FALSE,FALSE,FALSE,FALSE,FALSE,FALSE,FALSE,FALSE,FALSE,FALSE
JP-Fhk,DNF,Asia,AsiaFlux;JapanFlux,35.443554,138.7647,TRUE,FALSE,NA,TRUE,FALSE,FALSE,FALSE,FALSE,FALSE,FALSE,FALSE,FALSE,FALSE,FALSE,FALSE,FALSE
JP-Fjy,ENF,Asia,AsiaFlux;JapanFlux,35.45454,138.76225,TRUE,FALSE,NA,TRUE,FALSE,FALSE,FALSE,FALSE,FALSE,FALSE,FALSE,FALSE,FALSE,FALSE,FALSE,FALSE
JP-Fmt,MF,Asia,JapanFlux,35.638744,139.37975,TRUE,FALSE,NA,TRUE,FALSE,FALSE,FALSE,FALSE,FALSE,FALSE,FALSE,FALSE,FALSE,FALSE,FALSE,FALSE
JP-Hc2,CRO,Asia,AsiaFlux;JapanFlux,34.537518,133.92755,TRUE,FALSE,NA,TRUE,FALSE,FALSE,FALSE,FALSE,FALSE,FALSE,FALSE,FALSE,FALSE,FALSE,FALSE,FALSE
JP-Hc3,CRO,Asia,JapanFlux,34.539673,133.91173,TRUE,FALSE,NA,TRUE,TRUE,TRUE,FALSE,FALSE,TRUE,FALSE,FALSE,FALSE,FALSE,FALSE,TRUE,FALSE
JP-KaP,CRO,Asia,JapanFlux,36.08313,140.24033,TRUE,FALSE,NA,TRUE,TRUE,FALSE,FALSE,FALSE,FALSE,FALSE,FALSE,FALSE,FALSE,FALSE,TRUE,FALSE
JP-Khw,ENF,Asia,AsiaFlux;JapanFlux,33.13658,130.70834,TRUE,FALSE,NA,TRUE,FALSE,FALSE,FALSE,FALSE,FALSE,FALSE,FALSE,FALSE,FALSE,FALSE,FALSE,FALSE
JP-Kzw,MF,Asia,AsiaFlux;JapanFlux,36.406788,138.57257,TRUE,FALSE,NA,TRUE,FALSE,TRUE,FALSE,FALSE,FALSE,FALSE,FALSE,FALSE,FALSE,FALSE,TRUE,FALSE
JP-MBF,DBF,Asia,AsiaFlux,44.38406,142.31862,TRUE,FALSE,NA,TRUE,FALSE,FALSE,FALSE,FALSE,FALSE,FALSE,TRUE,FALSE,FALSE,FALSE,TRUE,FALSE
JP-MMF,MF,Asia,AsiaFlux;JapanFlux,44.321884,142.26152,TRUE,FALSE,NA,TRUE,FALSE,FALSE,FALSE,FALSE,FALSE,FALSE,TRUE,FALSE,FALSE,FALSE,TRUE,FALSE
JP-Mse,CRO,Asia,AsiaFlux;JapanFlux,36.05393,140.02693,TRUE,FALSE,NA,TRUE,FALSE,FALSE,FALSE,FALSE,FALSE,FALSE,FALSE,FALSE,FALSE,FALSE,FALSE,FALSE
JP-Nkm,ENF,Asia,AsiaFlux;JapanFlux,35.808064,137.83388,FALSE,NA,NA,NA,NA,NA,NA,NA,NA,NA,NA,NA,NA,NA,NA,FALSE
JP-NsC,GRA,Asia,AsiaFlux;JapanFlux,36.915054,139.93684,TRUE,FALSE,NA,TRUE,FALSE,FALSE,TRUE,FALSE,FALSE,FALSE,FALSE,FALSE,FALSE,FALSE,TRUE,FALSE
JP-NsM,GRA,Asia,AsiaFlux;JapanFlux,36.91604,139.936,TRUE,FALSE,NA,TRUE,FALSE,FALSE,TRUE,FALSE,FALSE,FALSE,FALSE,FALSE,FALSE,FALSE,TRUE,FALSE
JP-Nuf,DBF,Asia,JapanFlux,35.152416,136.9719,TRUE,FALSE,NA,TRUE,FALSE,FALSE,FALSE,FALSE,FALSE,FALSE,FALSE,FALSE,FALSE,FALSE,FALSE,FALSE
JP-Om2,GRA,Asia,AsiaFlux;JapanFlux,34.542454,135.50822,TRUE,FALSE,NA,TRUE,FALSE,FALSE,FALSE,FALSE,FALSE,FALSE,FALSE,FALSE,FALSE,FALSE,FALSE,FALSE
JP-SMF,MF,Asia,AsiaFlux;JapanFlux,35.261528,137.07875,TRUE,FALSE,NA,TRUE,FALSE,FALSE,FALSE,FALSE,FALSE,FALSE,FALSE,FALSE,FALSE,FALSE,FALSE,FALSE
JP-Sb1,WET,Asia,JapanFlux,45.104702,141.68797,TRUE,FALSE,NA,TRUE,FALSE,FALSE,FALSE,TRUE,FALSE,FALSE,FALSE,TRUE,FALSE,FALSE,TRUE,FALSE
JP-Sb2,WET,Asia,JapanFlux,45.10339,141.6808,TRUE,FALSE,NA,TRUE,FALSE,FALSE,FALSE,TRUE,FALSE,FALSE,FALSE,TRUE,FALSE,FALSE,TRUE,FALSE
JP-Shn,MF,Asia,JapanFlux,35.865753,137.93256,TRUE,FALSE,NA,TRUE,FALSE,FALSE,FALSE,FALSE,FALSE,FALSE,FALSE,FALSE,FALSE,FALSE,FALSE,FALSE
JP-Spp,DBF,Asia,AsiaFlux;JapanFlux,42.986843,141.38533,TRUE,FALSE,NA,TRUE,FALSE,FALSE,FALSE,FALSE,FALSE,FALSE,TRUE,FALSE,FALSE,FALSE,TRUE,FALSE
JP-Srk,DBF,Asia,AsiaFlux;JapanFlux,40.565483,140.12779,TRUE,FALSE,NA,TRUE,FALSE,FALSE,FALSE,FALSE,FALSE,FALSE,FALSE,FALSE,FALSE,FALSE,FALSE,FALSE
JP-Ta2,ENF,Asia,AsiaFlux;JapanFlux,36.140038,137.37071,TRUE,FALSE,NA,TRUE,FALSE,FALSE,FALSE,FALSE,FALSE,FALSE,FALSE,FALSE,FALSE,FALSE,FALSE,FALSE
JP-Tak,DBF,Asia,AsiaFlux;JapanFlux,36.146168,137.42311,TRUE,FALSE,NA,TRUE,FALSE,FALSE,FALSE,FALSE,FALSE,FALSE,FALSE,FALSE,FALSE,FALSE,FALSE,FALSE
JP-Tef,DNF,Asia,AsiaFlux;JapanFlux,45.05581,142.10712,TRUE,FALSE,NA,TRUE,FALSE,FALSE,FALSE,FALSE,FALSE,FALSE,FALSE,FALSE,FALSE,FALSE,FALSE,FALSE
JP-Tgf,GRA,Asia,AsiaFlux,36.11353,140.09488,FALSE,NA,NA,NA,NA,NA,NA,NA,NA,NA,NA,NA,NA,NA,NA,FALSE
JP-Tkb,ENF,Asia,JapanFlux,36.173378,140.17664,TRUE,FALSE,NA,TRUE,FALSE,FALSE,FALSE,FALSE,FALSE,FALSE,FALSE,FALSE,FALSE,FALSE,FALSE,FALSE
JP-Tmd,GRA,Asia,AsiaFlux;JapanFlux,42.735912,141.52315,TRUE,FALSE,NA,TRUE,FALSE,FALSE,FALSE,FALSE,FALSE,FALSE,FALSE,FALSE,FALSE,FALSE,FALSE,FALSE
JP-Tmk,DNF,Asia,AsiaFlux;JapanFlux,42.739307,141.51483,TRUE,FALSE,NA,TRUE,FALSE,FALSE,FALSE,FALSE,FALSE,FALSE,FALSE,FALSE,FALSE,FALSE,FALSE,FALSE
JP-Toc,DBF,Asia,JapanFlux,42.70973,141.5659,TRUE,FALSE,NA,TRUE,FALSE,FALSE,FALSE,FALSE,FALSE,FALSE,FALSE,FALSE,FALSE,FALSE,FALSE,FALSE
JP-Yms,DBF,Asia,AsiaFlux;JapanFlux,34.79028,135.84094,TRUE,FALSE,NA,TRUE,FALSE,FALSE,FALSE,FALSE,FALSE,FALSE,FALSE,FALSE,FALSE,FALSE,FALSE,FALSE
JP-Ynf,EBF,Asia,AsiaFlux;JapanFlux,26.751,128.21266,TRUE,FALSE,NA,TRUE,FALSE,FALSE,FALSE,FALSE,FALSE,FALSE,FALSE,FALSE,FALSE,FALSE,FALSE,FALSE
KE-Aq1,CRO,Africa,Unaffiliated,-1.57781,37.067047,TRUE,FALSE,NA,TRUE,FALSE,TRUE,FALSE,FALSE,FALSE,FALSE,FALSE,FALSE,FALSE,FALSE,TRUE,FALSE
KE-Aq2,CRO,Africa,Unaffiliated,-1.566199,37.100166,TRUE,FALSE,NA,TRUE,FALSE,TRUE,FALSE,FALSE,FALSE,FALSE,FALSE,FALSE,FALSE,FALSE,TRUE,FALSE
KE-Chk,WSA,Africa,Unaffiliated,-3.6663,38.350185,TRUE,FALSE,NA,TRUE,FALSE,FALSE,FALSE,TRUE,FALSE,FALSE,FALSE,FALSE,FALSE,FALSE,TRUE,FALSE
KE-Kpt,GRA,Africa,Unaffiliated,-1.6141866,37.13311,TRUE,FALSE,NA,TRUE,FALSE,FALSE,FALSE,TRUE,FALSE,FALSE,FALSE,FALSE,FALSE,FALSE,TRUE,FALSE
KE-Mkt,CRO,Africa,Unaffiliated,-3.425859,38.140663,TRUE,FALSE,NA,TRUE,FALSE,FALSE,FALSE,FALSE,FALSE,FALSE,FALSE,FALSE,FALSE,FALSE,FALSE,FALSE
KH-Kmp,EBF,Asia,JapanFlux,12.744579,105.47857,TRUE,FALSE,NA,TRUE,FALSE,FALSE,FALSE,FALSE,FALSE,FALSE,FALSE,FALSE,FALSE,FALSE,FALSE,FALSE
KR-AdC,ENF,Asia,AsiaFlux;KoFlux,36.50565,126.35909,TRUE,FALSE,NA,FALSE,FALSE,FALSE,FALSE,FALSE,FALSE,FALSE,FALSE,FALSE,FALSE,FALSE,FALSE,FALSE
KR-CRK,CRO,Asia,AsiaFlux;KoFlux,38.2013,127.2497,TRUE,FALSE,NA,TRUE,FALSE,FALSE,FALSE,FALSE,TRUE,FALSE,FALSE,FALSE,FALSE,FALSE,TRUE,FALSE
KR-CmF,CRO,Asia,NA,37.1599,127.65365,TRUE,FALSE,NA,FALSE,FALSE,FALSE,FALSE,FALSE,FALSE,FALSE,FALSE,FALSE,FALSE,FALSE,FALSE,FALSE
KR-GmP,CRO,Asia,NA,35.74502,126.85222,TRUE,FALSE,NA,FALSE,FALSE,FALSE,FALSE,FALSE,FALSE,FALSE,FALSE,FALSE,FALSE,FALSE,FALSE,FALSE
KR-GmR,CRO,Asia,AsiaFlux;KoFlux,35.74862,126.86432,TRUE,FALSE,NA,FALSE,FALSE,FALSE,FALSE,FALSE,FALSE,FALSE,FALSE,FALSE,FALSE,FALSE,FALSE,FALSE
KR-GmS,CRO,Asia,AsiaFlux;KoFlux,35.75089,126.81378,TRUE,FALSE,NA,FALSE,FALSE,FALSE,FALSE,FALSE,FALSE,FALSE,FALSE,FALSE,FALSE,FALSE,FALSE,FALSE
KR-HPK,CRO,Asia,AsiaFlux;KoFlux,34.47722,126.48105,TRUE,FALSE,NA,FALSE,FALSE,FALSE,FALSE,FALSE,FALSE,FALSE,FALSE,FALSE,FALSE,FALSE,FALSE,FALSE
KR-HcM,MF,Asia,AsiaFlux;KoFlux,37.61938,127.84571,TRUE,FALSE,NA,FALSE,FALSE,FALSE,FALSE,FALSE,FALSE,FALSE,FALSE,FALSE,FALSE,FALSE,FALSE,FALSE
KR-Hnm,CRO,Asia,AsiaFlux;KoFlux,34.5538,126.56992,TRUE,FALSE,NA,FALSE,FALSE,FALSE,FALSE,FALSE,FALSE,FALSE,FALSE,FALSE,FALSE,FALSE,FALSE,FALSE
KR-JjM,MF,Asia,AsiaFlux;KoFlux,33.31798,126.56772,TRUE,FALSE,NA,FALSE,FALSE,FALSE,FALSE,FALSE,FALSE,FALSE,FALSE,FALSE,FALSE,FALSE,FALSE,FALSE
KR-Kw1,ENF,Asia,NA,37.74843,127.16261,TRUE,FALSE,NA,FALSE,FALSE,FALSE,FALSE,FALSE,FALSE,FALSE,FALSE,FALSE,FALSE,FALSE,FALSE,FALSE
KR-Kw2,DBF,Asia,AsiaFlux;KoFlux,37.74869,127.14888,TRUE,FALSE,NA,FALSE,FALSE,FALSE,FALSE,FALSE,FALSE,FALSE,FALSE,FALSE,FALSE,FALSE,FALSE,FALSE
KR-Nj1,CRO,Asia,NA,35.02753,126.82093,TRUE,FALSE,NA,TRUE,FALSE,FALSE,FALSE,FALSE,FALSE,FALSE,FALSE,FALSE,FALSE,FALSE,FALSE,FALSE
KR-Nj2,CRO,Asia,AsiaFlux;KoFlux,35.0269,126.8219,TRUE,FALSE,NA,TRUE,FALSE,FALSE,FALSE,FALSE,FALSE,FALSE,FALSE,FALSE,FALSE,FALSE,FALSE,FALSE
KR-PcD,DBF,Asia,AsiaFlux;KoFlux,37.48184,128.51604,TRUE,FALSE,NA,FALSE,FALSE,FALSE,FALSE,FALSE,FALSE,FALSE,FALSE,FALSE,FALSE,FALSE,FALSE,FALSE
KR-ScC,ENF,Asia,AsiaFlux;KoFlux,37.22141,129.29863,TRUE,FALSE,NA,FALSE,FALSE,FALSE,FALSE,FALSE,FALSE,FALSE,FALSE,FALSE,FALSE,FALSE,FALSE,FALSE
KR-SmM,MF,Asia,NA,37.93894,126.95471,TRUE,FALSE,NA,FALSE,FALSE,FALSE,FALSE,FALSE,FALSE,FALSE,FALSE,FALSE,FALSE,FALSE,FALSE,FALSE
KR-TwB,DBF,Asia,NA,37.30406,127.31395,TRUE,FALSE,NA,TRUE,FALSE,FALSE,FALSE,FALSE,FALSE,FALSE,FALSE,FALSE,FALSE,FALSE,FALSE,FALSE
KR-TwC,ENF,Asia,NA,37.30493,127.31743,TRUE,FALSE,NA,TRUE,FALSE,FALSE,FALSE,FALSE,FALSE,FALSE,FALSE,FALSE,FALSE,FALSE,FALSE,FALSE
KR-UAO,CRO,Asia,AsiaFlux;KoFlux,36.41682,128.79904,TRUE,FALSE,NA,FALSE,FALSE,FALSE,FALSE,FALSE,FALSE,FALSE,FALSE,FALSE,FALSE,FALSE,FALSE,FALSE
KR-WdE,EBF,Asia,AsiaFlux;KoFlux,34.35956,126.67779,TRUE,FALSE,NA,FALSE,FALSE,FALSE,FALSE,FALSE,FALSE,FALSE,FALSE,FALSE,FALSE,FALSE,FALSE,FALSE
ML-Kem,WSA,Africa,CarboAfrica,15.2875,-1.543056,TRUE,FALSE,NA,TRUE,FALSE,FALSE,FALSE,FALSE,FALSE,FALSE,FALSE,FALSE,FALSE,FALSE,FALSE,FALSE
MN-Hst,GRA,Asia,JapanFlux,47.59293,105.85497,TRUE,FALSE,NA,TRUE,FALSE,FALSE,FALSE,FALSE,FALSE,FALSE,FALSE,FALSE,FALSE,FALSE,FALSE,FALSE
MN-Kbu,GRA,Asia,AsiaFlux;JapanFlux,47.21397,108.737335,TRUE,FALSE,NA,TRUE,FALSE,FALSE,FALSE,TRUE,FALSE,FALSE,FALSE,FALSE,FALSE,FALSE,TRUE,FALSE
MN-Nkh,GRA,Asia,JapanFlux,47.693592,107.48934,TRUE,FALSE,NA,TRUE,FALSE,FALSE,FALSE,FALSE,FALSE,FALSE,FALSE,FALSE,FALSE,FALSE,FALSE,FALSE
MN-Udg,DNF,Asia,JapanFlux,48.25649,106.85116,TRUE,FALSE,NA,TRUE,FALSE,FALSE,FALSE,TRUE,FALSE,FALSE,TRUE,FALSE,FALSE,FALSE,TRUE,FALSE
MX-Aog,DBF,S. America,AmeriFlux;MexFlux,26.9968,-108.7892,TRUE,TRUE,Grazing,TRUE,FALSE,FALSE,FALSE,TRUE,FALSE,FALSE,FALSE,FALSE,FALSE,FALSE,TRUE,FALSE
MX-PMm,WET,S. America,AmeriFlux;MexFlux,20.8462,-86.8992,TRUE,FALSE,NA,TRUE,FALSE,FALSE,FALSE,FALSE,FALSE,FALSE,FALSE,FALSE,FALSE,FALSE,FALSE,FALSE
MX-Tes,DBF,S. America,AmeriFlux;MexFlux,27.8446,-109.2977,TRUE,TRUE,Grazing,TRUE,FALSE,FALSE,FALSE,TRUE,FALSE,FALSE,FALSE,FALSE,FALSE,FALSE,TRUE,FALSE
MY-LHP,EBF,Asia,AsiaFlux;JapanFlux,4.201007,114.03908,TRUE,FALSE,NA,TRUE,FALSE,FALSE,FALSE,FALSE,FALSE,FALSE,FALSE,FALSE,FALSE,FALSE,FALSE,FALSE
NL-Hrw,GRA,Europe,European Fluxes Database,51.972466,5.641228,TRUE,FALSE,NA,TRUE,FALSE,FALSE,FALSE,FALSE,FALSE,FALSE,FALSE,FALSE,FALSE,FALSE,FALSE,FALSE
NL-Loo,ENF,Europe,European Fluxes Database;ICOS,52.166447,5.74355,TRUE,FALSE,NA,TRUE,FALSE,FALSE,FALSE,FALSE,FALSE,FALSE,FALSE,FALSE,FALSE,FALSE,FALSE,FALSE
NL-Vkp,GRA,Europe,European Fluxes Database,51.980934,5.618825,TRUE,FALSE,NA,TRUE,FALSE,FALSE,FALSE,FALSE,FALSE,FALSE,FALSE,FALSE,FALSE,FALSE,FALSE,FALSE
NO-And,WET,Europe,European Fluxes Database,69.1422,16.01975,TRUE,FALSE,NA,TRUE,FALSE,FALSE,FALSE,FALSE,FALSE,FALSE,FALSE,FALSE,FALSE,FALSE,FALSE,FALSE
NO-Fns,SNO,Europe,European Fluxes Database,60.59384,7.5271025,TRUE,FALSE,NA,TRUE,FALSE,FALSE,FALSE,FALSE,FALSE,FALSE,FALSE,FALSE,FALSE,FALSE,FALSE,FALSE
NO-Hur,ENF,Europe,European Fluxes Database;ICOS,60.37163,11.07949,TRUE,FALSE,NA,TRUE,FALSE,FALSE,FALSE,FALSE,FALSE,FALSE,FALSE,FALSE,FALSE,FALSE,FALSE,FALSE
NO-Ikr,WET,Europe,European Fluxes Database,69.34,25.3,TRUE,FALSE,NA,TRUE,FALSE,FALSE,FALSE,FALSE,FALSE,FALSE,FALSE,FALSE,FALSE,FALSE,FALSE,FALSE
NZ-ADd,GRA,Australia,OzFlux,-43.64405,172.35465,TRUE,FALSE,NA,FALSE,FALSE,FALSE,FALSE,FALSE,FALSE,FALSE,FALSE,FALSE,FALSE,FALSE,FALSE,FALSE
NZ-ADw,GRA,Australia,OzFlux,-43.64935,172.34952,TRUE,FALSE,NA,FALSE,FALSE,FALSE,FALSE,FALSE,FALSE,FALSE,FALSE,FALSE,FALSE,FALSE,FALSE,FALSE
NZ-BFm,GRA,Australia,OzFlux,-43.593528,171.929611,TRUE,FALSE,NA,FALSE,FALSE,FALSE,FALSE,FALSE,FALSE,FALSE,FALSE,FALSE,FALSE,FALSE,FALSE,FALSE
NZ-BFu,GRA,Australia,OzFlux,-43.591833,171.926833,TRUE,FALSE,NA,FALSE,FALSE,FALSE,FALSE,FALSE,FALSE,FALSE,FALSE,FALSE,FALSE,FALSE,FALSE,FALSE
NZ-Cla,GRA,Australia,OzFlux,-43.78628,171.59558,TRUE,FALSE,NA,FALSE,FALSE,FALSE,FALSE,FALSE,FALSE,FALSE,FALSE,FALSE,FALSE,FALSE,FALSE,FALSE
NZ-Kop,WET,Australia,OzFlux,-37.387875,175.55389,TRUE,FALSE,NA,FALSE,FALSE,FALSE,FALSE,FALSE,FALSE,FALSE,FALSE,FALSE,FALSE,FALSE,FALSE,FALSE
NZ-Lau,GRA,Australia,OzFlux,-45.038904,169.681109,TRUE,FALSE,NA,FALSE,FALSE,FALSE,FALSE,FALSE,FALSE,FALSE,FALSE,FALSE,FALSE,FALSE,FALSE,FALSE
NZ-Oxf,GRA,Australia,OzFlux,-43.2609,172.21588,TRUE,FALSE,NA,FALSE,FALSE,FALSE,FALSE,FALSE,FALSE,FALSE,FALSE,FALSE,FALSE,FALSE,FALSE,FALSE
NZ-ScF,GRA,Australia,OzFlux,-37.46,175.22,TRUE,FALSE,NA,FALSE,FALSE,FALSE,FALSE,FALSE,FALSE,FALSE,FALSE,FALSE,FALSE,FALSE,FALSE,FALSE
PA-SPn,DBF,S. America,European Fluxes Database,9.31814,-79.6346,TRUE,FALSE,NA,FALSE,FALSE,FALSE,FALSE,FALSE,FALSE,FALSE,FALSE,FALSE,FALSE,FALSE,FALSE,FALSE
PA-SPs,GRA,S. America,European Fluxes Database,9.31378,-79.63143,TRUE,FALSE,NA,FALSE,FALSE,FALSE,FALSE,FALSE,FALSE,FALSE,FALSE,FALSE,FALSE,FALSE,FALSE,FALSE
PE-QFR,WET,S. America,AmeriFlux,-3.8344,-73.319,TRUE,TRUE,Undisturbed,TRUE,FALSE,FALSE,FALSE,FALSE,FALSE,FALSE,FALSE,FALSE,FALSE,FALSE,FALSE,FALSE
PR-xGU,EBF,S. America,AmeriFlux;NEON;Phenocam,17.9696,-66.8687,TRUE,TRUE,Storm or wind,TRUE,FALSE,FALSE,FALSE,FALSE,FALSE,FALSE,FALSE,FALSE,FALSE,FALSE,FALSE,FALSE
PR-xLA,GRA,S. America,AmeriFlux;NEON;Phenocam,18.0212,-67.0769,TRUE,TRUE,Grazing; Storm or wind,TRUE,FALSE,FALSE,FALSE,TRUE,FALSE,FALSE,FALSE,FALSE,FALSE,FALSE,TRUE,FALSE
RU-Ch2,WET,Europe,European Fluxes Database;PAGE21,68.61689,161.35089,TRUE,FALSE,NA,FALSE,FALSE,FALSE,FALSE,FALSE,FALSE,FALSE,FALSE,FALSE,FALSE,FALSE,FALSE,FALSE
RU-Che,WET,Europe,European Fluxes Database;PAGE21;TCOS-Siberia,68.61304,161.34143,TRUE,FALSE,NA,FALSE,FALSE,FALSE,FALSE,FALSE,FALSE,FALSE,FALSE,FALSE,FALSE,FALSE,FALSE,FALSE
RU-Ege,DNF,Europe,JapanFlux,60.015514,133.824,TRUE,FALSE,NA,TRUE,FALSE,FALSE,FALSE,FALSE,FALSE,FALSE,FALSE,FALSE,FALSE,FALSE,FALSE,FALSE
RU-Fy2,ENF,Europe,European Fluxes Database,56.4476,32.90188,TRUE,FALSE,NA,TRUE,FALSE,FALSE,FALSE,FALSE,FALSE,FALSE,FALSE,TRUE,FALSE,FALSE,TRUE,FALSE
RU-Fy3,OSH,Europe,European Fluxes Database,56.4435,33.0478,TRUE,FALSE,NA,TRUE,TRUE,FALSE,FALSE,FALSE,FALSE,FALSE,FALSE,FALSE,FALSE,FALSE,TRUE,FALSE
RU-Fy4,WET,Europe,European Fluxes Database,56.4727,33.0413,TRUE,FALSE,NA,FALSE,FALSE,FALSE,FALSE,FALSE,FALSE,FALSE,FALSE,FALSE,FALSE,FALSE,FALSE,FALSE
RU-Fyo,ENF,Europe,European Fluxes Database;GHG-Europe;InGOS;TCOS-Siberia,56.46153,32.922085,TRUE,FALSE,NA,TRUE,FALSE,TRUE,FALSE,FALSE,FALSE,FALSE,FALSE,FALSE,FALSE,FALSE,TRUE,FALSE
RU-Ha1,GRA,Europe,European Fluxes Database;TCOS-Siberia,54.72517,90.00215,TRUE,FALSE,NA,FALSE,FALSE,FALSE,FALSE,FALSE,FALSE,FALSE,FALSE,FALSE,FALSE,FALSE,FALSE,FALSE
RU-NeB,GRA,Europe,JapanFlux,62.325935,129.48734,TRUE,FALSE,NA,TRUE,FALSE,FALSE,FALSE,FALSE,FALSE,FALSE,TRUE,FALSE,FALSE,FALSE,TRUE,FALSE
RU-NeC,OSH,Europe,JapanFlux,62.314842,129.50008,TRUE,FALSE,NA,TRUE,FALSE,FALSE,FALSE,FALSE,FALSE,FALSE,TRUE,FALSE,FALSE,FALSE,TRUE,FALSE
RU-NeF,DNF,Europe,JapanFlux,62.315617,129.49997,TRUE,FALSE,NA,TRUE,FALSE,FALSE,FALSE,FALSE,FALSE,FALSE,TRUE,FALSE,FALSE,FALSE,TRUE,FALSE
RU-Sk2,ENF,Europe,AsiaFlux;JapanFlux,62.241356,129.65047,TRUE,FALSE,NA,TRUE,FALSE,FALSE,FALSE,FALSE,FALSE,FALSE,FALSE,FALSE,FALSE,FALSE,FALSE,FALSE
RU-SkP,DNF,Europe,AsiaFlux;JapanFlux;PAGE21,62.25471,129.61855,TRUE,FALSE,NA,TRUE,FALSE,FALSE,FALSE,FALSE,FALSE,FALSE,FALSE,FALSE,FALSE,FALSE,FALSE,FALSE
RU-Tur,DNF,Europe,AsiaFlux;JapanFlux,64.208885,100.463554,TRUE,FALSE,NA,TRUE,FALSE,FALSE,FALSE,FALSE,FALSE,FALSE,FALSE,FALSE,FALSE,FALSE,FALSE,FALSE
SD-Dem,SAV,Africa,CarboAfrica;European Fluxes Database,13.2829,30.4783,TRUE,FALSE,NA,FALSE,FALSE,FALSE,FALSE,FALSE,FALSE,FALSE,FALSE,FALSE,FALSE,FALSE,FALSE,FALSE
SE-Deg,WET,Europe,European Fluxes Database;ICOS,64.18203,19.55654,TRUE,FALSE,NA,TRUE,FALSE,TRUE,FALSE,FALSE,FALSE,FALSE,FALSE,FALSE,FALSE,FALSE,TRUE,FALSE
SE-HfM,WET,Europe,European Fluxes Database,64.15955,19.551497,TRUE,FALSE,NA,TRUE,FALSE,FALSE,FALSE,FALSE,FALSE,FALSE,FALSE,FALSE,FALSE,FALSE,FALSE,FALSE
SE-Hmr,WET,Europe,European Fluxes Database,64.15955,19.551497,TRUE,FALSE,NA,TRUE,FALSE,FALSE,FALSE,FALSE,FALSE,FALSE,FALSE,FALSE,FALSE,FALSE,FALSE,FALSE
SE-Htm,ENF,Europe,European Fluxes Database;ICOS,56.09763,13.41897,TRUE,FALSE,NA,TRUE,FALSE,FALSE,FALSE,FALSE,FALSE,FALSE,FALSE,FALSE,FALSE,FALSE,FALSE,FALSE
SE-Nor,ENF,Europe,European Fluxes Database;ICOS,60.0865,17.479504,TRUE,FALSE,NA,TRUE,FALSE,TRUE,FALSE,FALSE,FALSE,FALSE,FALSE,FALSE,FALSE,FALSE,TRUE,FALSE
SE-Ros,ENF,Europe,European Fluxes Database,64.16522,19.79074,TRUE,FALSE,NA,TRUE,FALSE,FALSE,FALSE,FALSE,FALSE,FALSE,FALSE,FALSE,FALSE,FALSE,FALSE,FALSE
SE-Srj,WET,Europe,European Fluxes Database,64.17498,19.56381,TRUE,FALSE,NA,TRUE,FALSE,FALSE,FALSE,FALSE,FALSE,FALSE,FALSE,FALSE,FALSE,FALSE,FALSE,FALSE
SE-St1,WET,Europe,CarboEuropeIP;Carbomont;European Fluxes Database;PAGE21,68.35415,19.050333,TRUE,FALSE,NA,TRUE,FALSE,FALSE,FALSE,FALSE,FALSE,FALSE,FALSE,FALSE,FALSE,FALSE,FALSE,FALSE
SE-Sto,WET,Europe,European Fluxes Database;ICOS,68.35594,19.045208,TRUE,FALSE,NA,TRUE,FALSE,FALSE,FALSE,FALSE,FALSE,FALSE,FALSE,FALSE,FALSE,FALSE,FALSE,FALSE
SE-Svb,ENF,Europe,European Fluxes Database;ICOS,64.25611,19.7745,TRUE,FALSE,NA,TRUE,FALSE,FALSE,FALSE,FALSE,FALSE,FALSE,FALSE,FALSE,FALSE,FALSE,FALSE,FALSE
SE-Trb,WET,Europe,European Fluxes Database,64.180916,19.837284,TRUE,FALSE,NA,TRUE,TRUE,FALSE,FALSE,FALSE,FALSE,FALSE,FALSE,TRUE,FALSE,FALSE,TRUE,FALSE
SJ-Adv,WET,Europe,NA,78.186,15.923,FALSE,NA,NA,NA,NA,NA,NA,NA,NA,NA,NA,NA,NA,NA,NA,FALSE
SN-Dhr,GRA,Africa,CarboAfrica;European Fluxes Database;GHG-Europe,15.40256,-15.43214,TRUE,FALSE,NA,TRUE,FALSE,FALSE,FALSE,TRUE,FALSE,FALSE,FALSE,FALSE,FALSE,FALSE,TRUE,FALSE
SN-Nkr,CRO,Africa,European Fluxes Database,14.49581,-16.45357,TRUE,FALSE,NA,TRUE,FALSE,TRUE,FALSE,TRUE,FALSE,FALSE,FALSE,FALSE,FALSE,FALSE,TRUE,FALSE
TH-Kog,EBF,Asia,AsiaFlux;JapanFlux,18.81267,98.90225,TRUE,FALSE,NA,TRUE,FALSE,FALSE,FALSE,FALSE,FALSE,FALSE,FALSE,FALSE,FALSE,FALSE,FALSE,FALSE
TH-Mae,DBF,Asia,AsiaFlux;JapanFlux,18.42264,99.72025,TRUE,FALSE,NA,TRUE,FALSE,FALSE,FALSE,FALSE,FALSE,FALSE,FALSE,FALSE,FALSE,FALSE,FALSE,FALSE
UK-AMo,WET,Europe,European Fluxes Database;ICOS,55.792545,-3.2436917,TRUE,FALSE,NA,TRUE,FALSE,TRUE,FALSE,TRUE,FALSE,FALSE,FALSE,TRUE,FALSE,FALSE,TRUE,FALSE
UK-Ags,GRA,Europe,European Fluxes Database,53.3097,-4.30044,TRUE,FALSE,NA,FALSE,FALSE,FALSE,FALSE,FALSE,FALSE,FALSE,FALSE,FALSE,FALSE,FALSE,FALSE,FALSE
UK-BnB,GRA,Europe,European Fluxes Database,54.82326,-6.66984,TRUE,FALSE,NA,TRUE,FALSE,FALSE,FALSE,FALSE,FALSE,FALSE,FALSE,FALSE,FALSE,FALSE,FALSE,FALSE
UK-CCr,GRA,Europe,European Fluxes Database,52.2542,-3.93357,TRUE,FALSE,NA,TRUE,FALSE,FALSE,FALSE,FALSE,FALSE,FALSE,FALSE,FALSE,FALSE,FALSE,FALSE,FALSE
UK-Cvn,GRA,Europe,European Fluxes Database,52.43339,0.162177,TRUE,FALSE,NA,FALSE,FALSE,FALSE,FALSE,FALSE,FALSE,FALSE,FALSE,FALSE,FALSE,FALSE,FALSE,FALSE
UK-GaB,GRA,Europe,European Fluxes Database,55.10994,-6.529928,TRUE,FALSE,NA,TRUE,FALSE,FALSE,FALSE,FALSE,FALSE,FALSE,FALSE,FALSE,FALSE,FALSE,FALSE,FALSE
UK-Gnn,GRA,Europe,European Fluxes Database,54.96185,-6.760763,TRUE,FALSE,NA,TRUE,FALSE,FALSE,FALSE,FALSE,FALSE,FALSE,FALSE,FALSE,FALSE,FALSE,FALSE,FALSE
UK-Gwr,GRA,Europe,European Fluxes Database,54.85464,-5.988278,TRUE,FALSE,NA,TRUE,FALSE,FALSE,FALSE,FALSE,FALSE,FALSE,FALSE,FALSE,FALSE,FALSE,FALSE,FALSE
UK-HgF,GRA,Europe,European Fluxes Database,52.552177,0.515057,TRUE,FALSE,NA,FALSE,FALSE,FALSE,FALSE,FALSE,FALSE,FALSE,FALSE,FALSE,FALSE,FALSE,FALSE,FALSE
UK-HpF,CRO,Europe,European Fluxes Database,52.24809,-0.0498267,TRUE,FALSE,NA,TRUE,FALSE,FALSE,FALSE,FALSE,FALSE,FALSE,FALSE,FALSE,FALSE,FALSE,FALSE,FALSE
US-A03,BSV,N. America,AmeriFlux,70.4953,-149.8823,TRUE,FALSE,NA,TRUE,FALSE,FALSE,FALSE,FALSE,FALSE,FALSE,FALSE,FALSE,FALSE,FALSE,FALSE,FALSE
US-A10,BSV,N. America,AmeriFlux,71.3242,-156.6149,TRUE,FALSE,NA,TRUE,FALSE,FALSE,FALSE,FALSE,FALSE,FALSE,FALSE,FALSE,FALSE,FALSE,FALSE,FALSE
US-A32,GRA,N. America,AmeriFlux,36.8193,-97.8198,TRUE,TRUE,Agriculture,TRUE,FALSE,FALSE,FALSE,FALSE,FALSE,FALSE,FALSE,FALSE,FALSE,TRUE,TRUE,FALSE
US-A37,CVM,N. America,AmeriFlux,36.3106,-97.928,TRUE,FALSE,NA,TRUE,FALSE,FALSE,FALSE,FALSE,FALSE,FALSE,FALSE,FALSE,FALSE,FALSE,FALSE,FALSE
US-A39,CRO,N. America,AmeriFlux,36.3776,-96.069,TRUE,FALSE,NA,TRUE,FALSE,FALSE,FALSE,FALSE,FALSE,FALSE,FALSE,FALSE,FALSE,FALSE,FALSE,FALSE
US-A74,CRO,N. America,AmeriFlux,36.8085,-97.5489,TRUE,TRUE,Agriculture,TRUE,FALSE,FALSE,FALSE,FALSE,FALSE,FALSE,FALSE,FALSE,FALSE,TRUE,TRUE,FALSE
US-ABa,GRA,N. America,AmeriFlux;LTAR,27.1301,-81.2011,TRUE,FALSE,NA,TRUE,FALSE,FALSE,TRUE,TRUE,FALSE,FALSE,TRUE,FALSE,FALSE,FALSE,TRUE,FALSE
US-ABb,GRA,N. America,AmeriFlux;LTAR,27.1346,-81.2031,TRUE,FALSE,NA,TRUE,FALSE,FALSE,TRUE,TRUE,FALSE,FALSE,TRUE,FALSE,FALSE,FALSE,TRUE,FALSE
US-ABc,GRA,N. America,AmeriFlux,27.1633,-81.1873,TRUE,FALSE,NA,TRUE,FALSE,FALSE,TRUE,TRUE,FALSE,FALSE,FALSE,FALSE,FALSE,FALSE,TRUE,FALSE
US-ABd,GRA,N. America,AmeriFlux;LTAR,27.1699,-81.2152,TRUE,FALSE,NA,TRUE,FALSE,FALSE,TRUE,TRUE,FALSE,FALSE,FALSE,FALSE,FALSE,FALSE,TRUE,FALSE
US-ABe,WET,N. America,AmeriFlux;LTAR,27.1656,-81.2161,TRUE,FALSE,NA,TRUE,FALSE,FALSE,FALSE,TRUE,FALSE,FALSE,FALSE,FALSE,FALSE,FALSE,TRUE,FALSE
US-ADR,BSV,N. America,AmeriFlux,36.7653,-116.6933,TRUE,TRUE,Drought,TRUE,FALSE,FALSE,FALSE,FALSE,FALSE,FALSE,FALSE,FALSE,FALSE,FALSE,FALSE,FALSE
US-ALQ,WET,N. America,AmeriFlux;AmeriFlux,46.0308,-89.6067,TRUE,FALSE,NA,TRUE,FALSE,FALSE,FALSE,FALSE,FALSE,FALSE,FALSE,FALSE,FALSE,FALSE,FALSE,FALSE
US-AR1,GRA,N. America,AmeriFlux,36.4267,-99.42,TRUE,TRUE,Agriculture,TRUE,FALSE,FALSE,FALSE,TRUE,FALSE,FALSE,TRUE,FALSE,FALSE,FALSE,TRUE,FALSE
US-AR2,GRA,N. America,AmeriFlux,36.6358,-99.5975,TRUE,TRUE,Agriculture,TRUE,FALSE,FALSE,TRUE,FALSE,FALSE,FALSE,FALSE,FALSE,FALSE,FALSE,TRUE,FALSE
US-ARM,CRO,N. America,AmeriFlux;Phenocam,36.6058,-97.4888,TRUE,TRUE,Agriculture,TRUE,FALSE,FALSE,FALSE,FALSE,FALSE,FALSE,FALSE,FALSE,FALSE,TRUE,TRUE,FALSE
US-ARb,GRA,N. America,AmeriFlux,35.5497,-98.0402,TRUE,FALSE,NA,TRUE,FALSE,FALSE,FALSE,TRUE,FALSE,FALSE,TRUE,FALSE,FALSE,FALSE,TRUE,FALSE
US-ARc,GRA,N. America,AmeriFlux,35.5465,-98.04,TRUE,FALSE,NA,TRUE,FALSE,FALSE,FALSE,TRUE,FALSE,FALSE,TRUE,FALSE,FALSE,FALSE,TRUE,FALSE
US-ASH,DBF,N. America,AmeriFlux,36.1697,-120.201,TRUE,TRUE,Agriculture,FALSE,FALSE,FALSE,FALSE,FALSE,FALSE,FALSE,FALSE,FALSE,FALSE,TRUE,TRUE,FALSE
US-ASM,DBF,N. America,AmeriFlux,36.1777,-120.2026,TRUE,TRUE,Agriculture,TRUE,FALSE,FALSE,FALSE,FALSE,FALSE,FALSE,FALSE,FALSE,FALSE,TRUE,TRUE,FALSE
US-Akn,MF,N. America,AmeriFlux,33.3825,-81.5653,TRUE,TRUE,Forestry,TRUE,FALSE,FALSE,FALSE,FALSE,FALSE,FALSE,TRUE,FALSE,TRUE,FALSE,TRUE,FALSE
US-Aud,GRA,N. America,AmeriFlux,31.5907,-110.5104,TRUE,FALSE,NA,TRUE,FALSE,FALSE,FALSE,FALSE,FALSE,FALSE,FALSE,FALSE,FALSE,FALSE,FALSE,FALSE
US-BRG,GRA,N. America,AmeriFlux,39.2167,-86.5406,TRUE,FALSE,NA,TRUE,FALSE,FALSE,FALSE,FALSE,FALSE,FALSE,FALSE,FALSE,FALSE,FALSE,FALSE,FALSE
US-BZB,WET,N. America,AmeriFlux,64.6955,-148.3208,TRUE,FALSE,NA,TRUE,FALSE,FALSE,FALSE,FALSE,FALSE,FALSE,FALSE,FALSE,FALSE,FALSE,FALSE,FALSE
US-BZF,WET,N. America,AmeriFlux,64.7013,-148.3121,TRUE,FALSE,NA,TRUE,FALSE,FALSE,FALSE,FALSE,FALSE,FALSE,FALSE,FALSE,FALSE,FALSE,FALSE,FALSE
US-BZo,WET,N. America,AmeriFlux,64.6936,-148.33,TRUE,FALSE,NA,TRUE,FALSE,FALSE,FALSE,FALSE,FALSE,FALSE,FALSE,FALSE,FALSE,FALSE,FALSE,FALSE
US-Bar,DBF,N. America,AmeriFlux;Phenocam,44.0646,-71.2881,TRUE,TRUE,Forestry,TRUE,FALSE,TRUE,FALSE,FALSE,FALSE,FALSE,FALSE,TRUE,TRUE,FALSE,TRUE,FALSE
US-Bi1,CRO,N. America,AmeriFlux;Phenocam,38.0992,-121.4993,TRUE,TRUE,Agriculture,TRUE,FALSE,FALSE,FALSE,FALSE,FALSE,FALSE,FALSE,FALSE,FALSE,TRUE,TRUE,FALSE
US-Bi2,CRO,N. America,AmeriFlux;Phenocam,38.1091,-121.5351,TRUE,TRUE,Agriculture,TRUE,TRUE,FALSE,FALSE,TRUE,FALSE,FALSE,FALSE,TRUE,FALSE,FALSE,TRUE,FALSE
US-CAK,GRA,N. America,AmeriFlux,64.8618,-163.7002,TRUE,TRUE,Undisturbed,TRUE,FALSE,FALSE,FALSE,FALSE,FALSE,FALSE,FALSE,FALSE,FALSE,FALSE,FALSE,FALSE
US-CF1,CRO,N. America,AmeriFlux;LTAR;Phenocam,46.7815,-117.0821,TRUE,TRUE,Agriculture,FALSE,FALSE,FALSE,FALSE,FALSE,FALSE,FALSE,FALSE,FALSE,FALSE,TRUE,TRUE,FALSE
US-CF2,CRO,N. America,AmeriFlux;LTAR;Phenocam,46.784,-117.0908,TRUE,TRUE,Agriculture,FALSE,FALSE,FALSE,FALSE,FALSE,FALSE,FALSE,FALSE,FALSE,FALSE,TRUE,TRUE,FALSE
US-CF3,CRO,N. America,AmeriFlux;LTAR;Phenocam,46.7551,-117.1261,TRUE,TRUE,Agriculture,FALSE,FALSE,FALSE,FALSE,FALSE,FALSE,FALSE,FALSE,FALSE,FALSE,TRUE,TRUE,FALSE
US-CF4,CRO,N. America,AmeriFlux;LTAR;Phenocam,46.7518,-117.1285,TRUE,TRUE,Agriculture,FALSE,FALSE,FALSE,FALSE,FALSE,FALSE,FALSE,FALSE,FALSE,FALSE,TRUE,TRUE,FALSE
US-CGG,GRA,N. America,AmeriFlux,37.938,-121.9761,TRUE,TRUE,Fire,TRUE,FALSE,FALSE,FALSE,TRUE,FALSE,FALSE,TRUE,FALSE,FALSE,FALSE,TRUE,FALSE
US-CLF,CVM,N. America,AmeriFlux,40.6366,-77.9424,TRUE,TRUE,Drought,TRUE,FALSE,TRUE,FALSE,FALSE,FALSE,FALSE,FALSE,TRUE,FALSE,FALSE,TRUE,FALSE
US-CMW,DBF,N. America,AmeriFlux,31.6637,-110.1777,TRUE,FALSE,NA,TRUE,FALSE,FALSE,FALSE,FALSE,FALSE,FALSE,FALSE,FALSE,FALSE,FALSE,FALSE,FALSE
US-CRK,ENF,N. America,AmeriFlux,31.4629,-95.3415,TRUE,TRUE,Fire,TRUE,FALSE,FALSE,FALSE,FALSE,FALSE,FALSE,TRUE,FALSE,FALSE,FALSE,TRUE,FALSE
US-CRT,CRO,N. America,AmeriFlux;Phenocam,41.6285,-83.3471,TRUE,TRUE,Agriculture; Storm or wind; Temperature extreme,TRUE,FALSE,TRUE,FALSE,FALSE,TRUE,FALSE,FALSE,TRUE,FALSE,FALSE,TRUE,FALSE
US-CS1,CRO,N. America,AmeriFlux,44.1031,-89.5379,TRUE,TRUE,Agriculture,TRUE,FALSE,FALSE,FALSE,FALSE,TRUE,FALSE,FALSE,FALSE,FALSE,FALSE,TRUE,FALSE
US-CS2,ENF,N. America,AmeriFlux,44.1467,-89.5002,TRUE,FALSE,NA,TRUE,FALSE,FALSE,FALSE,FALSE,FALSE,FALSE,FALSE,FALSE,FALSE,FALSE,FALSE,FALSE
US-CS3,CRO,N. America,AmeriFlux,44.1394,-89.5727,TRUE,TRUE,Agriculture,TRUE,FALSE,FALSE,FALSE,FALSE,TRUE,FALSE,FALSE,FALSE,FALSE,FALSE,TRUE,FALSE
US-CS4,CRO,N. America,AmeriFlux,44.1597,-89.5475,TRUE,TRUE,Agriculture,TRUE,FALSE,FALSE,FALSE,FALSE,TRUE,FALSE,FALSE,FALSE,FALSE,FALSE,TRUE,FALSE
US-CS5,CRO,N. America,AmeriFlux,44.1095,-89.5377,TRUE,TRUE,Agriculture,TRUE,FALSE,FALSE,FALSE,FALSE,TRUE,FALSE,FALSE,FALSE,FALSE,FALSE,TRUE,FALSE
US-CS6,CRO,N. America,AmeriFlux,44.4297,-89.544,TRUE,TRUE,Agriculture,TRUE,FALSE,FALSE,FALSE,FALSE,TRUE,FALSE,FALSE,FALSE,FALSE,FALSE,TRUE,FALSE
US-CS8,CRO,N. America,AmeriFlux,44.4338,-89.5364,TRUE,TRUE,Agriculture,TRUE,FALSE,FALSE,FALSE,FALSE,TRUE,FALSE,FALSE,FALSE,FALSE,FALSE,TRUE,FALSE
US-CdM,WSA,N. America,AmeriFlux,37.5241,-109.7471,TRUE,TRUE,Drought; Grazing,TRUE,FALSE,FALSE,FALSE,TRUE,FALSE,FALSE,FALSE,FALSE,FALSE,FALSE,TRUE,FALSE
US-Ced,CSH,N. America,AmeriFlux,39.8379,-74.3791,TRUE,TRUE,Fire; Pests and disease,TRUE,FALSE,TRUE,FALSE,FALSE,FALSE,FALSE,TRUE,FALSE,FALSE,FALSE,TRUE,FALSE
US-ChR,DBF,N. America,AmeriFlux;Phenocam,35.9311,-84.3324,TRUE,FALSE,NA,TRUE,FALSE,FALSE,FALSE,FALSE,FALSE,FALSE,FALSE,FALSE,FALSE,FALSE,FALSE,FALSE
US-Cms,WET,N. America,AmeriFlux,71.3202,-156.6223,TRUE,TRUE,Undisturbed,TRUE,FALSE,FALSE,FALSE,FALSE,FALSE,FALSE,FALSE,FALSE,FALSE,FALSE,FALSE,FALSE
US-Cop,GRA,N. America,AmeriFlux,38.09,-109.39,TRUE,FALSE,NA,TRUE,FALSE,FALSE,FALSE,TRUE,FALSE,FALSE,FALSE,FALSE,FALSE,FALSE,TRUE,FALSE
US-Cst,ENF,N. America,AmeriFlux,33.0442,-91.9204,TRUE,TRUE,Fire; Forestry,TRUE,TRUE,FALSE,FALSE,FALSE,FALSE,FALSE,TRUE,FALSE,FALSE,FALSE,TRUE,FALSE
US-Cwt,DBF,N. America,AmeriFlux;Phenocam,35.0592,-83.4275,TRUE,FALSE,NA,TRUE,TRUE,FALSE,FALSE,FALSE,FALSE,FALSE,FALSE,FALSE,FALSE,FALSE,TRUE,FALSE
US-DFC,CRO,N. America,AmeriFlux,43.3448,-89.7117,TRUE,TRUE,Agriculture,TRUE,FALSE,FALSE,FALSE,TRUE,FALSE,FALSE,FALSE,FALSE,FALSE,FALSE,TRUE,FALSE
US-DFK,CRO,N. America,AmeriFlux,43.3453,-89.7154,TRUE,TRUE,Agriculture,TRUE,FALSE,FALSE,FALSE,FALSE,FALSE,FALSE,FALSE,FALSE,FALSE,TRUE,TRUE,FALSE
US-DPW,WET,N. America,AmeriFlux,28.0521,-81.4361,TRUE,TRUE,Fire; Hydrologic event,TRUE,FALSE,FALSE,FALSE,FALSE,FALSE,FALSE,TRUE,FALSE,FALSE,FALSE,TRUE,FALSE
US-DS1,CRO,N. America,AmeriFlux,38.1335,-121.539,TRUE,TRUE,Agriculture,TRUE,FALSE,FALSE,FALSE,FALSE,FALSE,FALSE,FALSE,FALSE,FALSE,TRUE,TRUE,FALSE
US-DS2,CRO,N. America,AmeriFlux,38.1375,-121.514,TRUE,TRUE,Agriculture,TRUE,FALSE,FALSE,FALSE,FALSE,FALSE,FALSE,FALSE,FALSE,FALSE,TRUE,TRUE,FALSE
US-DS3,CRO,N. America,AmeriFlux;Phenocam,38.1235,-121.549,TRUE,TRUE,Agriculture,TRUE,FALSE,FALSE,FALSE,FALSE,FALSE,FALSE,FALSE,FALSE,FALSE,TRUE,TRUE,FALSE
US-Dix,MF,N. America,AmeriFlux,39.9712,-74.4346,TRUE,FALSE,NA,TRUE,FALSE,FALSE,FALSE,FALSE,FALSE,FALSE,FALSE,FALSE,FALSE,FALSE,FALSE,FALSE
US-Dk1,GRA,N. America,AmeriFlux,35.9712,-79.0934,TRUE,TRUE,Agriculture,TRUE,FALSE,FALSE,FALSE,FALSE,FALSE,FALSE,TRUE,FALSE,FALSE,FALSE,TRUE,FALSE
US-Dk2,DBF,N. America,AmeriFlux;Phenocam,35.9736,-79.1004,TRUE,FALSE,NA,TRUE,FALSE,FALSE,FALSE,FALSE,FALSE,FALSE,FALSE,FALSE,FALSE,FALSE,FALSE,FALSE
US-Dk3,ENF,N. America,AmeriFlux,35.9782,-79.0942,TRUE,TRUE,Forestry; Storm or wind,TRUE,FALSE,FALSE,FALSE,FALSE,FALSE,FALSE,TRUE,FALSE,TRUE,FALSE,TRUE,FALSE
US-Dmg,WET,N. America,AmeriFlux;Phenocam,38.0015,-121.6691,TRUE,TRUE,Hydrologic event,TRUE,FALSE,FALSE,FALSE,FALSE,FALSE,FALSE,FALSE,FALSE,FALSE,FALSE,FALSE,FALSE
US-EA4,MF,N. America,AmeriFlux,29.6633,-98.3816,TRUE,TRUE,Drought; Land cover change; Temperature extreme,TRUE,FALSE,FALSE,FALSE,FALSE,FALSE,FALSE,FALSE,FALSE,FALSE,TRUE,TRUE,FALSE
US-EA5,CSH,N. America,AmeriFlux,29.3584,-99.9576,TRUE,TRUE,Drought; Land cover change; Temperature extreme,TRUE,FALSE,FALSE,FALSE,FALSE,FALSE,FALSE,FALSE,FALSE,FALSE,TRUE,TRUE,FALSE
US-EA6,WSA,N. America,AmeriFlux,29.6561,-99.9588,TRUE,TRUE,Drought; Land cover change; Temperature extreme,TRUE,FALSE,FALSE,FALSE,FALSE,FALSE,FALSE,FALSE,FALSE,FALSE,TRUE,TRUE,FALSE
US-EDN,WET,N. America,AmeriFlux,37.6156,-122.114,TRUE,FALSE,NA,TRUE,FALSE,FALSE,FALSE,FALSE,FALSE,FALSE,FALSE,FALSE,FALSE,FALSE,FALSE,FALSE
US-EKH,WET,N. America,AmeriFlux;Phenocam,36.8094,-121.7523,TRUE,TRUE,Land cover change,TRUE,FALSE,FALSE,FALSE,FALSE,FALSE,FALSE,FALSE,TRUE,FALSE,FALSE,TRUE,FALSE
US-EKN,WET,N. America,AmeriFlux,36.8357,-121.7328,TRUE,TRUE,Agriculture; Hydrologic event,TRUE,FALSE,FALSE,FALSE,FALSE,FALSE,FALSE,FALSE,FALSE,FALSE,TRUE,TRUE,FALSE
US-EKP,WET,N. America,AmeriFlux,36.8558,-121.7488,TRUE,TRUE,Hydrologic event,TRUE,FALSE,FALSE,FALSE,FALSE,FALSE,FALSE,FALSE,FALSE,FALSE,FALSE,FALSE,FALSE
US-EML,OSH,N. America,AmeriFlux;LTER,63.8784,-149.2536,TRUE,TRUE,Temperature extreme,TRUE,FALSE,FALSE,FALSE,FALSE,FALSE,FALSE,FALSE,FALSE,FALSE,FALSE,FALSE,FALSE
US-Elm,WET,N. America,AmeriFlux;LTER,25.5519,-80.7826,TRUE,FALSE,NA,TRUE,FALSE,FALSE,FALSE,FALSE,FALSE,FALSE,FALSE,FALSE,FALSE,FALSE,FALSE,FALSE
US-Esm,WET,N. America,AmeriFlux;LTER,25.4379,-80.5946,TRUE,FALSE,NA,TRUE,FALSE,FALSE,FALSE,FALSE,FALSE,FALSE,FALSE,FALSE,FALSE,FALSE,FALSE,FALSE
US-EvM,WET,N. America,AmeriFlux;LTER,25.3539,-80.381,TRUE,TRUE,Storm or wind,TRUE,FALSE,FALSE,FALSE,FALSE,FALSE,FALSE,FALSE,FALSE,FALSE,FALSE,FALSE,FALSE
US-Fcr,OSH,N. America,AmeriFlux,65.3968,-148.9348,TRUE,TRUE,Fire,TRUE,FALSE,FALSE,FALSE,FALSE,FALSE,FALSE,TRUE,FALSE,FALSE,FALSE,TRUE,FALSE
US-Fmf,ENF,N. America,AmeriFlux,35.1426,-111.7273,TRUE,TRUE,Forestry,TRUE,FALSE,FALSE,FALSE,FALSE,FALSE,TRUE,FALSE,FALSE,FALSE,FALSE,TRUE,FALSE
US-Fo1,WET,N. America,AmeriFlux,70.085,-148.5671,TRUE,FALSE,NA,TRUE,FALSE,FALSE,FALSE,FALSE,FALSE,FALSE,FALSE,FALSE,FALSE,FALSE,FALSE,FALSE
US-Fo2,WET,N. America,AmeriFlux,70.0229,-148.6598,TRUE,TRUE,Undisturbed,TRUE,FALSE,FALSE,FALSE,FALSE,FALSE,FALSE,FALSE,FALSE,FALSE,FALSE,FALSE,FALSE
US-Fuf,ENF,N. America,AmeriFlux,35.089,-111.762,TRUE,TRUE,Undisturbed,TRUE,FALSE,FALSE,FALSE,FALSE,FALSE,FALSE,FALSE,FALSE,FALSE,FALSE,FALSE,FALSE
US-Fwf,GRA,N. America,AmeriFlux,35.4454,-111.7718,TRUE,TRUE,Fire,TRUE,FALSE,FALSE,FALSE,FALSE,FALSE,FALSE,TRUE,FALSE,FALSE,FALSE,TRUE,FALSE
US-GLE,ENF,N. America,AmeriFlux,41.3665,-106.2399,TRUE,TRUE,Pests and disease,TRUE,FALSE,FALSE,FALSE,TRUE,FALSE,FALSE,FALSE,FALSE,FALSE,FALSE,TRUE,FALSE
US-HB1,WET,N. America,AmeriFlux;Phenocam,33.3455,-79.1957,TRUE,FALSE,NA,TRUE,FALSE,FALSE,FALSE,FALSE,FALSE,FALSE,FALSE,FALSE,FALSE,FALSE,FALSE,FALSE
US-HB2,ENF,N. America,AmeriFlux;Phenocam,33.3242,-79.244,TRUE,FALSE,NA,TRUE,FALSE,FALSE,FALSE,FALSE,FALSE,FALSE,TRUE,FALSE,FALSE,FALSE,TRUE,FALSE
US-HB3,ENF,N. America,AmeriFlux;Phenocam,33.3482,-79.2322,TRUE,FALSE,NA,TRUE,FALSE,FALSE,FALSE,FALSE,FALSE,FALSE,FALSE,FALSE,FALSE,FALSE,FALSE,FALSE
US-HB4,WET,N. America,AmeriFlux;Phenocam,33.2015,-79.2975,TRUE,FALSE,NA,TRUE,FALSE,FALSE,FALSE,FALSE,FALSE,FALSE,FALSE,FALSE,FALSE,FALSE,FALSE,FALSE
US-HBK,DBF,N. America,AmeriFlux,43.9397,-71.7181,TRUE,TRUE,Forestry,TRUE,FALSE,FALSE,FALSE,FALSE,FALSE,FALSE,FALSE,FALSE,TRUE,FALSE,TRUE,FALSE
US-HRA,CRO,N. America,AmeriFlux;Phenocam,34.5852,-91.7517,TRUE,TRUE,Agriculture,TRUE,FALSE,FALSE,FALSE,FALSE,FALSE,FALSE,FALSE,FALSE,FALSE,TRUE,TRUE,FALSE
US-HRC,CRO,N. America,AmeriFlux;Phenocam,34.5888,-91.7517,TRUE,TRUE,Agriculture,TRUE,FALSE,FALSE,FALSE,FALSE,TRUE,FALSE,FALSE,FALSE,FALSE,FALSE,TRUE,FALSE
US-HVs,WET,N. America,AmeriFlux,69.1672,-148.8569,TRUE,TRUE,Undisturbed,TRUE,FALSE,FALSE,FALSE,FALSE,FALSE,FALSE,FALSE,FALSE,FALSE,FALSE,FALSE,FALSE
US-HWB,CVM,N. America,AmeriFlux;LTAR,40.8608,-77.8488,TRUE,TRUE,Agriculture,TRUE,FALSE,FALSE,FALSE,TRUE,FALSE,FALSE,FALSE,FALSE,FALSE,FALSE,TRUE,FALSE
US-Ha1,DBF,N. America,AmeriFlux;LTER;Phenocam,42.5378,-72.1715,TRUE,TRUE,Undisturbed,TRUE,FALSE,FALSE,FALSE,FALSE,FALSE,FALSE,FALSE,FALSE,FALSE,FALSE,FALSE,FALSE
US-Hn2,GRA,N. America,AmeriFlux,46.6889,-119.4641,TRUE,TRUE,Hydrologic event,TRUE,FALSE,FALSE,FALSE,FALSE,FALSE,FALSE,FALSE,TRUE,FALSE,FALSE,TRUE,FALSE
US-Hn3,OSH,N. America,AmeriFlux,46.6878,-119.4614,TRUE,FALSE,NA,TRUE,FALSE,FALSE,FALSE,FALSE,FALSE,FALSE,FALSE,TRUE,FALSE,FALSE,TRUE,FALSE
US-Ho2,ENF,N. America,AmeriFlux,45.209,-68.747,TRUE,TRUE,Fire,TRUE,FALSE,FALSE,FALSE,FALSE,FALSE,FALSE,TRUE,FALSE,FALSE,FALSE,TRUE,FALSE
US-Ho3,ENF,N. America,AmeriFlux,45.2072,-68.7265,TRUE,TRUE,Forestry,TRUE,FALSE,FALSE,FALSE,FALSE,FALSE,FALSE,FALSE,FALSE,TRUE,FALSE,TRUE,FALSE
US-Hsm,WET,N. America,AmeriFlux;Phenocam,38.2368,-122.0212,TRUE,TRUE,Hydrologic event,TRUE,FALSE,FALSE,FALSE,FALSE,FALSE,FALSE,FALSE,FALSE,FALSE,FALSE,FALSE,FALSE
US-IAB,CRO,N. America,AmeriFlux,42.0001,-93.7016,TRUE,TRUE,Agriculture,TRUE,FALSE,FALSE,FALSE,FALSE,FALSE,FALSE,FALSE,FALSE,FALSE,TRUE,TRUE,FALSE
US-IAC,CRO,N. America,AmeriFlux,41.9984,-93.7016,TRUE,TRUE,Agriculture,TRUE,FALSE,FALSE,FALSE,FALSE,FALSE,FALSE,FALSE,FALSE,FALSE,TRUE,TRUE,FALSE
US-IAM,CRO,N. America,AmeriFlux,41.9994,-93.7042,TRUE,TRUE,Agriculture,TRUE,FALSE,FALSE,FALSE,FALSE,FALSE,FALSE,FALSE,FALSE,FALSE,TRUE,TRUE,FALSE
US-ICh,OSH,N. America,AmeriFlux;Phenocam,68.6068,-149.2958,TRUE,TRUE,Undisturbed,TRUE,FALSE,FALSE,FALSE,FALSE,FALSE,FALSE,FALSE,TRUE,FALSE,FALSE,TRUE,FALSE
US-ICs,WET,N. America,AmeriFlux;Phenocam,68.6058,-149.311,TRUE,TRUE,Undisturbed,TRUE,FALSE,FALSE,FALSE,FALSE,FALSE,FALSE,FALSE,TRUE,FALSE,FALSE,TRUE,FALSE
US-ICt,OSH,N. America,AmeriFlux;Phenocam,68.6063,-149.3041,TRUE,TRUE,Undisturbed,TRUE,FALSE,FALSE,FALSE,FALSE,FALSE,FALSE,FALSE,TRUE,FALSE,FALSE,TRUE,FALSE
US-Jo1,OSH,N. America,AmeriFlux;LTER,32.582,-106.635,TRUE,TRUE,Drought; Grazing; Land cover change,TRUE,FALSE,FALSE,FALSE,TRUE,FALSE,FALSE,FALSE,FALSE,FALSE,FALSE,TRUE,FALSE
US-Jo2,OSH,N. America,AmeriFlux;LTER,32.5849,-106.6032,TRUE,TRUE,Grazing; Land cover change,TRUE,FALSE,FALSE,FALSE,TRUE,FALSE,FALSE,TRUE,FALSE,FALSE,FALSE,TRUE,FALSE
US-KFS,GRA,N. America,AmeriFlux;Phenocam,39.0561,-95.1907,TRUE,TRUE,Fire; Temperature extreme,TRUE,FALSE,FALSE,FALSE,FALSE,FALSE,FALSE,TRUE,FALSE,FALSE,FALSE,TRUE,FALSE
US-KPL,WET,N. America,AmeriFlux,60.5382,-150.5061,TRUE,TRUE,Undisturbed,TRUE,FALSE,FALSE,FALSE,FALSE,FALSE,FALSE,FALSE,FALSE,FALSE,FALSE,FALSE,FALSE
US-KS1,ENF,N. America,AmeriFlux,28.4583,-80.6709,TRUE,TRUE,Fire; Storm or wind,TRUE,FALSE,FALSE,FALSE,FALSE,FALSE,FALSE,TRUE,FALSE,FALSE,FALSE,TRUE,FALSE
US-KS2,CSH,N. America,AmeriFlux,28.6086,-80.6715,TRUE,TRUE,Fire; Storm or wind,TRUE,FALSE,FALSE,FALSE,FALSE,FALSE,FALSE,TRUE,FALSE,FALSE,FALSE,TRUE,FALSE
US-KS3,WET,N. America,AmeriFlux,28.7084,-80.7427,TRUE,TRUE,Hydrologic event,TRUE,FALSE,FALSE,FALSE,FALSE,FALSE,FALSE,FALSE,FALSE,FALSE,FALSE,FALSE,FALSE
US-Kon,GRA,N. America,AmeriFlux;Phenocam,39.0824,-96.5603,TRUE,TRUE,Fire; Temperature extreme,TRUE,FALSE,FALSE,FALSE,TRUE,FALSE,FALSE,TRUE,FALSE,FALSE,FALSE,TRUE,FALSE
US-LA2,WET,N. America,AmeriFlux,29.8587,-90.2869,TRUE,TRUE,Undisturbed,TRUE,FALSE,FALSE,FALSE,FALSE,FALSE,FALSE,FALSE,FALSE,FALSE,FALSE,FALSE,FALSE
US-LA3,WET,N. America,AmeriFlux,29.4936,-89.9153,TRUE,TRUE,Undisturbed,TRUE,FALSE,FALSE,FALSE,FALSE,FALSE,FALSE,FALSE,FALSE,FALSE,FALSE,FALSE,FALSE
US-LS1,GRA,N. America,AmeriFlux,31.5615,-110.1403,TRUE,TRUE,Hydrologic event,TRUE,FALSE,FALSE,FALSE,FALSE,FALSE,FALSE,FALSE,FALSE,FALSE,FALSE,FALSE,FALSE
US-Lin,CRO,N. America,AmeriFlux,36.3566,-119.0922,TRUE,FALSE,NA,TRUE,TRUE,FALSE,FALSE,FALSE,TRUE,FALSE,FALSE,FALSE,FALSE,FALSE,TRUE,FALSE
US-Los,WET,N. America,AmeriFlux;Phenocam,46.0827,-89.9786,TRUE,TRUE,Hydrologic event,TRUE,FALSE,FALSE,FALSE,FALSE,FALSE,FALSE,FALSE,FALSE,FALSE,FALSE,FALSE,FALSE
US-MBP,WET,N. America,AmeriFlux;Phenocam,47.5051,-93.4893,TRUE,FALSE,NA,TRUE,FALSE,FALSE,FALSE,FALSE,FALSE,FALSE,FALSE,FALSE,FALSE,FALSE,FALSE,FALSE
US-MEF,ENF,N. America,AmeriFlux,39.1006,-105.1024,TRUE,TRUE,Drought; Fire; Forestry,TRUE,FALSE,FALSE,FALSE,TRUE,FALSE,TRUE,TRUE,TRUE,FALSE,FALSE,TRUE,FALSE
US-MMS,DBF,N. America,AmeriFlux;Phenocam,39.3232,-86.4133,TRUE,TRUE,Forestry,TRUE,FALSE,FALSE,FALSE,FALSE,FALSE,FALSE,FALSE,FALSE,TRUE,FALSE,TRUE,FALSE
US-MN1,CRO,N. America,AmeriFlux,45.6168,-96.1269,TRUE,TRUE,Agriculture,TRUE,FALSE,TRUE,FALSE,FALSE,FALSE,FALSE,FALSE,TRUE,FALSE,FALSE,TRUE,FALSE
US-MN2,CRO,N. America,AmeriFlux,45.627,-96.1271,TRUE,TRUE,Agriculture,TRUE,FALSE,TRUE,FALSE,FALSE,FALSE,FALSE,FALSE,TRUE,FALSE,FALSE,TRUE,FALSE
US-MN3,CRO,N. America,AmeriFlux,45.6091,-96.1265,TRUE,TRUE,Agriculture,TRUE,FALSE,TRUE,FALSE,FALSE,FALSE,FALSE,FALSE,TRUE,FALSE,FALSE,TRUE,FALSE
US-MOz,DBF,N. America,AmeriFlux;Phenocam,38.7441,-92.2,TRUE,FALSE,NA,TRUE,FALSE,FALSE,FALSE,FALSE,FALSE,FALSE,FALSE,FALSE,FALSE,FALSE,FALSE,FALSE
US-MZA,WET,N. America,AmeriFlux,43.0441,-76.7897,TRUE,TRUE,Land cover change,TRUE,FALSE,FALSE,FALSE,FALSE,FALSE,FALSE,FALSE,FALSE,FALSE,TRUE,TRUE,FALSE
US-Me1,ENF,N. America,AmeriFlux,44.5794,-121.5,TRUE,TRUE,Fire,TRUE,FALSE,FALSE,FALSE,FALSE,FALSE,FALSE,TRUE,FALSE,FALSE,FALSE,TRUE,FALSE
US-Me3,ENF,N. America,AmeriFlux,44.3154,-121.6078,TRUE,TRUE,Forestry,TRUE,FALSE,FALSE,FALSE,FALSE,FALSE,FALSE,FALSE,FALSE,TRUE,FALSE,TRUE,FALSE
US-Me5,ENF,N. America,AmeriFlux,44.4372,-121.5668,TRUE,TRUE,Forestry,TRUE,FALSE,FALSE,FALSE,FALSE,FALSE,FALSE,FALSE,FALSE,TRUE,FALSE,TRUE,FALSE
US-Me6,ENF,N. America,AmeriFlux;Phenocam,44.3232,-121.6044,TRUE,TRUE,Forestry,TRUE,FALSE,FALSE,FALSE,FALSE,FALSE,FALSE,TRUE,FALSE,TRUE,FALSE,TRUE,FALSE
US-Me7,ENF,N. America,AmeriFlux,44.4534,-121.5619,TRUE,TRUE,Drought; Fire,TRUE,FALSE,FALSE,FALSE,FALSE,FALSE,FALSE,TRUE,FALSE,FALSE,FALSE,TRUE,FALSE
US-Mo1,CRO,N. America,AmeriFlux;LTAR;Phenocam,39.2298,-92.1167,TRUE,TRUE,Agriculture,TRUE,FALSE,FALSE,FALSE,FALSE,FALSE,FALSE,FALSE,FALSE,FALSE,TRUE,TRUE,FALSE
US-Mo2,GRA,N. America,AmeriFlux;LTAR;Phenocam,38.9488,-91.9945,TRUE,TRUE,Fire,TRUE,FALSE,TRUE,FALSE,FALSE,FALSE,FALSE,TRUE,FALSE,FALSE,FALSE,TRUE,FALSE
US-Mo3,CRO,N. America,AmeriFlux;LTAR;Phenocam,39.2322,-92.1493,TRUE,TRUE,Agriculture,TRUE,FALSE,FALSE,FALSE,FALSE,FALSE,FALSE,FALSE,FALSE,FALSE,TRUE,TRUE,FALSE
US-Mpj,WSA,N. America,AmeriFlux;Phenocam,34.4382,-106.2385,TRUE,TRUE,Drought; Pests and disease,TRUE,FALSE,FALSE,FALSE,FALSE,FALSE,FALSE,FALSE,FALSE,FALSE,FALSE,FALSE,FALSE
US-MtB,ENF,N. America,AmeriFlux,32.416,-110.7256,TRUE,TRUE,Drought; Forestry,TRUE,FALSE,FALSE,FALSE,FALSE,FALSE,FALSE,FALSE,FALSE,TRUE,FALSE,TRUE,FALSE
US-Myb,WET,N. America,AmeriFlux;Phenocam,38.0499,-121.765,TRUE,TRUE,Hydrologic event; Land cover change,TRUE,FALSE,FALSE,FALSE,TRUE,FALSE,FALSE,FALSE,FALSE,FALSE,FALSE,TRUE,FALSE
US-NC1,ENF,N. America,AmeriFlux;USCCC,35.8118,-76.7119,TRUE,TRUE,Drought; Forestry; Hydrologic event; Storm or wind,TRUE,TRUE,FALSE,FALSE,FALSE,FALSE,FALSE,FALSE,FALSE,FALSE,FALSE,TRUE,FALSE
US-NC2,ENF,N. America,AmeriFlux;Phenocam;USCCC,35.803,-76.6685,TRUE,TRUE,Drought; Forestry; Hydrologic event; Storm or wind,TRUE,FALSE,FALSE,TRUE,FALSE,FALSE,TRUE,FALSE,FALSE,FALSE,FALSE,TRUE,FALSE
US-NC3,ENF,N. America,AmeriFlux;USCCC,35.799,-76.656,TRUE,TRUE,Drought; Forestry; Hydrologic event; Storm or wind,TRUE,TRUE,FALSE,FALSE,FALSE,FALSE,FALSE,FALSE,FALSE,FALSE,FALSE,TRUE,FALSE
US-NC4,WET,N. America,AmeriFlux;Phenocam,35.7817,-75.9135,TRUE,TRUE,Hydrologic event; Storm or wind,TRUE,FALSE,FALSE,FALSE,FALSE,FALSE,FALSE,FALSE,FALSE,FALSE,FALSE,FALSE,FALSE
US-NC5,ENF,N. America,AmeriFlux,36.1565,-78.7878,TRUE,TRUE,Grazing,TRUE,FALSE,FALSE,FALSE,TRUE,FALSE,FALSE,TRUE,FALSE,FALSE,FALSE,TRUE,FALSE
US-NGB,SNO,N. America,AmeriFlux;Phenocam,71.28,-156.6092,TRUE,FALSE,NA,TRUE,FALSE,FALSE,FALSE,FALSE,FALSE,FALSE,FALSE,FALSE,FALSE,FALSE,FALSE,FALSE
US-NGC,GRA,N. America,AmeriFlux,64.8618,-163.7002,TRUE,TRUE,Undisturbed,TRUE,FALSE,FALSE,FALSE,FALSE,FALSE,FALSE,FALSE,FALSE,FALSE,FALSE,FALSE,FALSE
US-NR1,ENF,N. America,AmeriFlux;Phenocam,40.0329,-105.547,TRUE,TRUE,Forestry,TRUE,FALSE,FALSE,FALSE,FALSE,FALSE,FALSE,TRUE,FALSE,TRUE,FALSE,TRUE,FALSE
US-NR3,GRA,N. America,AmeriFlux,40.052,-105.5864,TRUE,TRUE,Undisturbed,TRUE,FALSE,FALSE,FALSE,FALSE,FALSE,FALSE,FALSE,FALSE,FALSE,FALSE,FALSE,FALSE
US-NSa,CRO,N. America,AmeriFlux,36.6029,-119.5061,TRUE,TRUE,Agriculture,TRUE,FALSE,FALSE,FALSE,FALSE,TRUE,FALSE,FALSE,FALSE,FALSE,FALSE,TRUE,FALSE
US-NSb,CRO,N. America,AmeriFlux,36.3354,-120.1183,TRUE,TRUE,Agriculture,TRUE,FALSE,FALSE,FALSE,FALSE,TRUE,FALSE,FALSE,FALSE,FALSE,FALSE,TRUE,FALSE
US-Ne1,CRO,N. America,AmeriFlux,41.1651,-96.4766,TRUE,TRUE,Agriculture,TRUE,TRUE,TRUE,TRUE,FALSE,TRUE,FALSE,FALSE,FALSE,FALSE,FALSE,TRUE,FALSE
US-Ne2,CRO,N. America,AmeriFlux,41.1649,-96.4701,TRUE,TRUE,Agriculture,TRUE,FALSE,TRUE,TRUE,FALSE,TRUE,FALSE,FALSE,FALSE,FALSE,FALSE,TRUE,FALSE
US-Ne3,CRO,N. America,AmeriFlux,41.1797,-96.4397,TRUE,TRUE,Agriculture,TRUE,FALSE,TRUE,TRUE,FALSE,TRUE,FALSE,FALSE,FALSE,FALSE,FALSE,TRUE,FALSE
US-ONA,GRA,N. America,AmeriFlux;LTAR,27.3836,-81.9509,TRUE,TRUE,Fire; Grazing; Hydrologic event; Storm or wind,TRUE,FALSE,FALSE,FALSE,TRUE,FALSE,FALSE,TRUE,FALSE,FALSE,FALSE,TRUE,FALSE
US-OPE,CRO,N. America,AmeriFlux;LTAR;Phenocam,39.0293,-76.8457,TRUE,TRUE,Agriculture,TRUE,FALSE,FALSE,FALSE,FALSE,FALSE,FALSE,FALSE,FALSE,FALSE,TRUE,TRUE,FALSE
US-OWC,WET,N. America,AmeriFlux,41.3793,-82.5124,TRUE,TRUE,Hydrologic event,TRUE,FALSE,FALSE,FALSE,FALSE,FALSE,FALSE,FALSE,FALSE,FALSE,FALSE,FALSE,FALSE
US-Oho,DBF,N. America,AmeriFlux;USCCC,41.5545,-83.8438,TRUE,TRUE,Drought; Storm or wind; Temperature extreme,TRUE,FALSE,FALSE,FALSE,FALSE,FALSE,FALSE,TRUE,FALSE,FALSE,FALSE,TRUE,FALSE
US-PAS,GRA,N. America,AmeriFlux;LTAR,27.3944,-81.951,TRUE,TRUE,Agriculture; Grazing,TRUE,FALSE,FALSE,FALSE,TRUE,FALSE,FALSE,FALSE,FALSE,FALSE,FALSE,TRUE,FALSE
US-PFL,DBF,N. America,AmeriFlux,45.9409,-90.3177,TRUE,FALSE,NA,TRUE,FALSE,FALSE,FALSE,FALSE,FALSE,FALSE,FALSE,FALSE,FALSE,FALSE,FALSE,FALSE
US-PFb,ENF,N. America,AmeriFlux,45.972,-90.3232,TRUE,FALSE,NA,TRUE,FALSE,FALSE,FALSE,FALSE,FALSE,FALSE,FALSE,FALSE,FALSE,FALSE,FALSE,FALSE
US-PFc,DBF,N. America,AmeriFlux,45.9677,-90.3088,TRUE,FALSE,NA,TRUE,FALSE,FALSE,FALSE,FALSE,FALSE,FALSE,FALSE,FALSE,FALSE,FALSE,FALSE,FALSE
US-PFd,WET,N. America,AmeriFlux,45.9689,-90.301,TRUE,FALSE,NA,TRUE,FALSE,FALSE,FALSE,FALSE,FALSE,FALSE,FALSE,FALSE,FALSE,FALSE,FALSE,FALSE
US-PFf,GRA,N. America,AmeriFlux,45.9458,-90.2944,TRUE,FALSE,NA,TRUE,FALSE,FALSE,FALSE,FALSE,FALSE,FALSE,FALSE,FALSE,FALSE,FALSE,FALSE,FALSE
US-PFg,ENF,N. America,AmeriFlux,45.9735,-90.2723,TRUE,FALSE,NA,TRUE,FALSE,FALSE,FALSE,FALSE,FALSE,FALSE,FALSE,FALSE,FALSE,FALSE,FALSE,FALSE
US-PFh,ENF,N. America,AmeriFlux,45.9557,-90.2406,TRUE,FALSE,NA,TRUE,FALSE,FALSE,FALSE,FALSE,FALSE,FALSE,FALSE,FALSE,FALSE,FALSE,FALSE,FALSE
US-PFi,DBF,N. America,AmeriFlux,45.9749,-90.2327,TRUE,FALSE,NA,TRUE,FALSE,FALSE,FALSE,FALSE,FALSE,FALSE,FALSE,FALSE,FALSE,FALSE,FALSE,FALSE
US-PFj,DBF,N. America,AmeriFlux,45.9619,-90.227,TRUE,FALSE,NA,TRUE,FALSE,FALSE,FALSE,FALSE,FALSE,FALSE,FALSE,FALSE,FALSE,FALSE,FALSE,FALSE
US-PFk,DBF,N. America,AmeriFlux,45.9149,-90.3425,TRUE,FALSE,NA,TRUE,FALSE,FALSE,FALSE,FALSE,FALSE,FALSE,FALSE,FALSE,FALSE,FALSE,FALSE,FALSE
US-PFm,DBF,N. America,AmeriFlux,45.9207,-90.3099,TRUE,FALSE,NA,TRUE,FALSE,FALSE,FALSE,FALSE,FALSE,FALSE,FALSE,FALSE,FALSE,FALSE,FALSE,FALSE
US-PFn,DBF,N. America,AmeriFlux,45.9392,-90.2823,TRUE,FALSE,NA,TRUE,FALSE,FALSE,FALSE,FALSE,FALSE,FALSE,FALSE,FALSE,FALSE,FALSE,FALSE,FALSE
US-PFp,DBF,N. America,AmeriFlux,45.9365,-90.2641,TRUE,FALSE,NA,TRUE,FALSE,FALSE,FALSE,FALSE,FALSE,FALSE,FALSE,FALSE,FALSE,FALSE,FALSE,FALSE
US-PFq,DBF,N. America,AmeriFlux,45.9271,-90.2475,TRUE,FALSE,NA,TRUE,FALSE,FALSE,FALSE,FALSE,FALSE,FALSE,FALSE,FALSE,FALSE,FALSE,FALSE,FALSE
US-PFr,WET,N. America,AmeriFlux,45.9245,-90.2475,TRUE,FALSE,NA,TRUE,FALSE,FALSE,FALSE,FALSE,FALSE,FALSE,FALSE,FALSE,FALSE,FALSE,FALSE,FALSE
US-PFt,ENF,N. America,AmeriFlux,45.9197,-90.2288,TRUE,FALSE,NA,TRUE,FALSE,FALSE,FALSE,FALSE,FALSE,FALSE,FALSE,FALSE,FALSE,FALSE,FALSE,FALSE
US-PLo,WET,N. America,AmeriFlux,42.7496,-70.9157,TRUE,FALSE,NA,TRUE,FALSE,FALSE,FALSE,FALSE,FALSE,FALSE,FALSE,FALSE,FALSE,FALSE,FALSE,FALSE
US-PSH,DBF,N. America,AmeriFlux,36.2347,-119.9247,TRUE,TRUE,Agriculture,TRUE,FALSE,FALSE,FALSE,FALSE,FALSE,FALSE,FALSE,FALSE,FALSE,TRUE,TRUE,FALSE
US-PSL,DBF,N. America,AmeriFlux,36.8276,-120.1397,TRUE,TRUE,Agriculture,TRUE,FALSE,FALSE,FALSE,FALSE,FALSE,FALSE,FALSE,FALSE,FALSE,TRUE,TRUE,FALSE
US-Prr,ENF,N. America,AmeriFlux,65.1237,-147.4876,TRUE,TRUE,Undisturbed,TRUE,FALSE,FALSE,FALSE,FALSE,FALSE,FALSE,FALSE,FALSE,FALSE,FALSE,FALSE,FALSE
US-RC1,CRO,N. America,AmeriFlux;LTAR,46.7837,-117.0777,TRUE,TRUE,Agriculture,TRUE,FALSE,TRUE,FALSE,FALSE,FALSE,FALSE,FALSE,FALSE,FALSE,FALSE,TRUE,FALSE
US-RC2,CRO,N. America,AmeriFlux;LTAR,46.7776,-117.0807,TRUE,TRUE,Agriculture,TRUE,FALSE,TRUE,FALSE,FALSE,FALSE,FALSE,FALSE,FALSE,FALSE,FALSE,TRUE,FALSE
US-RC3,CRO,N. America,AmeriFlux,46.991,-118.598,TRUE,TRUE,Agriculture,TRUE,FALSE,FALSE,FALSE,FALSE,FALSE,FALSE,FALSE,FALSE,FALSE,TRUE,TRUE,FALSE
US-RC4,CRO,N. America,AmeriFlux,46.758,-116.949,TRUE,TRUE,Agriculture,TRUE,FALSE,TRUE,FALSE,FALSE,FALSE,FALSE,FALSE,FALSE,FALSE,FALSE,TRUE,FALSE
US-RC5,CRO,N. America,AmeriFlux,47.01,-119.248,TRUE,TRUE,Agriculture,TRUE,TRUE,FALSE,FALSE,FALSE,TRUE,FALSE,FALSE,FALSE,FALSE,FALSE,TRUE,FALSE
US-RGA,CRO,N. America,AmeriFlux;Phenocam,34.4159,-91.6733,TRUE,TRUE,Agriculture,TRUE,FALSE,FALSE,FALSE,FALSE,FALSE,FALSE,FALSE,FALSE,FALSE,TRUE,TRUE,FALSE
US-RGB,CRO,N. America,AmeriFlux;Phenocam,39.5782,-121.8579,TRUE,TRUE,Agriculture,TRUE,FALSE,FALSE,FALSE,FALSE,FALSE,FALSE,FALSE,FALSE,FALSE,TRUE,TRUE,FALSE
US-RGF,CRO,N. America,AmeriFlux;Phenocam,37.6995,-121.1369,TRUE,TRUE,Agriculture,TRUE,FALSE,FALSE,FALSE,FALSE,FALSE,FALSE,FALSE,FALSE,FALSE,TRUE,TRUE,FALSE
US-RGW,CRO,N. America,AmeriFlux;Phenocam,33.6216,-91.4306,TRUE,TRUE,Agriculture,TRUE,FALSE,FALSE,FALSE,FALSE,FALSE,FALSE,FALSE,FALSE,FALSE,TRUE,TRUE,FALSE
US-RGo,CRO,N. America,AmeriFlux;Phenocam,39.6805,-122.0026,TRUE,TRUE,Agriculture,TRUE,FALSE,FALSE,FALSE,FALSE,FALSE,FALSE,FALSE,FALSE,FALSE,TRUE,TRUE,FALSE
US-RRC,WET,N. America,AmeriFlux;Phenocam,37.3344,-77.2065,TRUE,TRUE,Land cover change,TRUE,FALSE,FALSE,FALSE,FALSE,FALSE,FALSE,FALSE,FALSE,FALSE,TRUE,TRUE,FALSE
US-Rls,CSH,N. America,AmeriFlux;LTAR;Phenocam,43.1439,-116.7356,TRUE,FALSE,NA,TRUE,FALSE,FALSE,FALSE,FALSE,FALSE,FALSE,FALSE,FALSE,FALSE,FALSE,FALSE,FALSE
US-Rms,CSH,N. America,AmeriFlux;LTAR;Phenocam,43.0645,-116.7486,TRUE,FALSE,NA,TRUE,FALSE,FALSE,FALSE,FALSE,FALSE,FALSE,FALSE,FALSE,FALSE,FALSE,FALSE,FALSE
US-Ro1,CRO,N. America,AmeriFlux;Phenocam,44.7143,-93.0898,TRUE,TRUE,Agriculture,TRUE,TRUE,TRUE,FALSE,FALSE,FALSE,FALSE,FALSE,FALSE,FALSE,FALSE,TRUE,FALSE
US-Ro2,CRO,N. America,AmeriFlux;Phenocam,44.7288,-93.0888,TRUE,TRUE,Agriculture,TRUE,TRUE,TRUE,FALSE,FALSE,FALSE,FALSE,FALSE,FALSE,FALSE,FALSE,TRUE,FALSE
US-Ro3,CRO,N. America,AmeriFlux,44.7217,-93.0893,TRUE,TRUE,Agriculture,TRUE,TRUE,TRUE,FALSE,FALSE,FALSE,FALSE,FALSE,FALSE,FALSE,FALSE,TRUE,FALSE
US-Ro4,GRA,N. America,AmeriFlux;Phenocam,44.6781,-93.0723,TRUE,TRUE,Agriculture,TRUE,FALSE,FALSE,FALSE,FALSE,FALSE,FALSE,FALSE,FALSE,FALSE,TRUE,TRUE,FALSE
US-Ro5,CRO,N. America,AmeriFlux;Phenocam,44.691,-93.0576,TRUE,TRUE,Agriculture,TRUE,TRUE,TRUE,FALSE,FALSE,FALSE,FALSE,FALSE,FALSE,FALSE,FALSE,TRUE,FALSE
US-Ro6,CRO,N. America,AmeriFlux;Phenocam,44.6946,-93.0578,TRUE,TRUE,Agriculture,TRUE,TRUE,TRUE,FALSE,FALSE,FALSE,FALSE,FALSE,FALSE,FALSE,FALSE,TRUE,FALSE
US-Rpf,DBF,N. America,AmeriFlux,65.1198,-147.429,TRUE,TRUE,Fire,TRUE,FALSE,FALSE,FALSE,FALSE,FALSE,FALSE,TRUE,FALSE,FALSE,FALSE,TRUE,FALSE
US-Rwe,CSH,N. America,AmeriFlux,43.0653,-116.7591,TRUE,FALSE,NA,TRUE,FALSE,FALSE,FALSE,FALSE,FALSE,FALSE,FALSE,FALSE,FALSE,FALSE,FALSE,FALSE
US-Rwf,CSH,N. America,AmeriFlux;LTAR,43.1207,-116.7231,TRUE,TRUE,Fire,TRUE,FALSE,FALSE,FALSE,FALSE,FALSE,FALSE,TRUE,FALSE,FALSE,FALSE,TRUE,FALSE
US-Rws,OSH,N. America,AmeriFlux;LTAR;Phenocam,43.1675,-116.7132,TRUE,TRUE,Undisturbed,TRUE,FALSE,FALSE,FALSE,FALSE,FALSE,FALSE,FALSE,FALSE,FALSE,FALSE,FALSE,FALSE
US-SD1,CRO,N. America,AmeriFlux,41.2048,-86.0296,TRUE,TRUE,Agriculture,TRUE,FALSE,TRUE,FALSE,FALSE,FALSE,FALSE,FALSE,FALSE,FALSE,FALSE,TRUE,FALSE
US-SD2,CRO,N. America,AmeriFlux,41.1785,-85.9977,TRUE,FALSE,NA,TRUE,FALSE,TRUE,FALSE,FALSE,FALSE,FALSE,FALSE,FALSE,FALSE,FALSE,TRUE,FALSE
US-SHC,ENF,N. America,AmeriFlux;Phenocam,39.4315,-120.2398,TRUE,FALSE,NA,TRUE,FALSE,FALSE,FALSE,FALSE,FALSE,FALSE,FALSE,FALSE,FALSE,FALSE,FALSE,FALSE
US-SP1,ENF,N. America,AmeriFlux;Phenocam,29.7381,-82.2188,TRUE,TRUE,Fire; Forestry,TRUE,FALSE,FALSE,FALSE,FALSE,FALSE,FALSE,TRUE,FALSE,TRUE,FALSE,TRUE,FALSE
US-SRC,OSH,N. America,AmeriFlux,31.9083,-110.8395,TRUE,FALSE,NA,TRUE,FALSE,FALSE,FALSE,FALSE,FALSE,FALSE,FALSE,FALSE,FALSE,FALSE,FALSE,FALSE
US-SRG,GRA,N. America,AmeriFlux;LTAR;Phenocam,31.7894,-110.8277,TRUE,TRUE,Grazing,TRUE,FALSE,FALSE,FALSE,TRUE,FALSE,FALSE,FALSE,FALSE,FALSE,FALSE,TRUE,FALSE
US-SRM,WSA,N. America,AmeriFlux;LTAR;Phenocam,31.8214,-110.8661,TRUE,TRUE,Grazing; Land cover change,TRUE,FALSE,FALSE,FALSE,TRUE,FALSE,FALSE,FALSE,FALSE,FALSE,FALSE,TRUE,FALSE
US-SRS,WSA,N. America,AmeriFlux,31.8173,-110.8508,TRUE,TRUE,Fire; Forestry; Grazing; Land cover change,TRUE,FALSE,FALSE,FALSE,TRUE,FALSE,FALSE,TRUE,FALSE,TRUE,FALSE,TRUE,FALSE
US-SSH,DBF,N. America,AmeriFlux;Phenocam,40.6658,-77.9041,TRUE,TRUE,Forestry,TRUE,FALSE,FALSE,FALSE,FALSE,FALSE,FALSE,FALSE,FALSE,TRUE,FALSE,TRUE,FALSE
US-Sag,WET,N. America,AmeriFlux,69.5131,-148.5676,TRUE,TRUE,Undisturbed,TRUE,FALSE,FALSE,FALSE,FALSE,FALSE,FALSE,FALSE,FALSE,FALSE,FALSE,FALSE,FALSE
