site_id,location_lat,location_long,ai_value,unep_class_5,unep_class_7,aridity_method
AT-Neu,47.116668701171875,11.317500114440918,1.5045000000000002,Humid,Humid (moderate),exact
AU-Fog,-12.542499542236328,131.3070068359375,0.7933,Humid,Humid (low),exact
AU-How,-12.49429988861084,131.15199279785156,0.8719,Humid,Humid (low),exact
AU-Tum,-35.65570068359375,148.15199279785156,1.4463000000000001,Humid,Humid (moderate),exact
AU-Wac,-37.42900085449219,145.18699645996094,1.327,Humid,Humid (moderate),exact
BE-Bra,51.309200286865234,4.520559787750244,1.1023,Humid,Humid (moderate),exact
BE-Jal,50.56389999389648,6.073329925537109,1.6540000000000001,Humid,Humid (moderate),exact
BE-Lon,50.55220031738281,4.744939804077148,1.1205,Humid,Humid (moderate),exact
BE-Vie,50.30550003051758,5.996829986572266,1.6283,Humid,Humid (moderate),exact
BR-Ban,-9.824419975280762,-50.15909957885742,1.31,Humid,Humid (moderate),exact
BR-Cax,-1.7197200059890747,-51.45899963378906,1.7623,Humid,Humid (moderate),exact
BR-Ji1,-10.761799812316896,-62.357200622558594,1.7100000000000002,Humid,Humid (moderate),exact
BR-Ji2,-10.083200454711914,-61.93090057373047,1.8555000000000001,Humid,Humid (moderate),exact
BR-Ma2,-2.609100103378296,-60.20930099487305,1.9752,Humid,Humid (moderate),exact
BR-Sa1,-2.8566699028015137,-54.95890045166016,1.6127,Humid,Humid (moderate),exact
BR-Sa2,-3.011899948120117,-54.5364990234375,1.499,Humid,Humid (moderate),exact
BR-Sa3,-3.0180299282073975,-54.97140121459961,1.5936000000000001,Humid,Humid (moderate),exact
BR-Sp1,-21.61949920654297,-47.649898529052734,1.1042,Humid,Humid (moderate),exact
BW-Ghg,-21.510000228881836,21.739999771118164,0.16920000000000002,Arid,Arid,exact
BW-Ghm,-21.200000762939453,21.75,0.16570000000000001,Arid,Arid,exact
BW-Ma1,-19.91550064086914,23.56049919128418,0.1874,Arid,Arid,exact
CA-Ca1,49.8671989440918,-125.33399963378906,2.3803,Humid,Hyper-Humid,exact
CA-Ca2,49.87049865722656,-125.29100036621094,2.2007000000000003,Humid,Hyper-Humid,exact
CA-Ca3,49.53459930419922,-124.9000015258789,2.1289000000000002,Humid,Hyper-Humid,exact
CA-Gro,48.21670150756836,-82.15560150146484,1.1280000000000001,Humid,Humid (moderate),exact
CA-Let,49.70930099487305,-112.94000244140624,0.3578,Semi-Arid,Semi-Arid,exact
CA-Man,55.879600524902344,-98.48079681396484,0.8530000000000001,Humid,Humid (low),exact
CA-Mer,45.409400939941406,-75.51860046386719,1.2047,Humid,Humid (moderate),exact
CA-NS1,55.87919998168945,-98.48390197753906,0.8534,Humid,Humid (low),exact
CA-NS2,55.905799865722656,-98.52469635009766,0.8571000000000001,Humid,Humid (low),exact
CA-NS3,55.91170120239258,-98.3822021484375,0.8634000000000001,Humid,Humid (low),exact
CA-NS4,55.91170120239258,-98.3822021484375,0.8634000000000001,Humid,Humid (low),exact
CA-NS5,55.86309814453125,-98.48500061035156,0.8543000000000001,Humid,Humid (low),exact
CA-NS6,55.91669845581055,-98.9644012451172,0.8484,Humid,Humid (low),exact
CA-NS7,56.635799407958984,-99.94830322265624,0.8246,Humid,Humid (low),exact
CA-Oas,53.62889862060547,-106.197998046875,0.681,Humid,Humid (low),exact
CA-Obs,53.98720169067383,-105.11799621582033,0.6947,Humid,Humid (low),exact
CA-Ojp,53.91630172729492,-104.69200134277344,0.7127,Humid,Humid (low),exact
CA-Qcu,49.2671012878418,-74.0364990234375,1.6507,Humid,Humid (moderate),exact
CA-Qfo,49.692501068115234,-74.34210205078125,1.6927,Humid,Humid (moderate),exact
CA-SF1,54.48500061035156,-105.81800079345705,0.7603000000000001,Humid,Humid (low),exact
CA-SF2,54.25389862060547,-105.87799835205078,0.7308,Humid,Humid (low),exact
CA-SF3,54.09159851074219,-106.00499725341795,0.7185,Humid,Humid (low),exact
CA-SJ1,53.90800094604492,-104.65599822998048,0.7068,Humid,Humid (low),exact
CA-SJ2,53.94499969482422,-104.64900207519533,0.7098,Humid,Humid (low),exact
CA-SJ3,53.87580108642578,-104.6449966430664,0.7006,Humid,Humid (low),exact
CA-TP1,42.6609001159668,-80.55950164794922,1.1596,Humid,Humid (moderate),exact
CA-TP2,42.77439880371094,-80.45880126953125,1.1576,Humid,Humid (moderate),exact
CA-TP3,42.7067985534668,-80.348297119140625,1.1678,Humid,Humid (moderate),exact
CA-TP4,42.70980072021485,-80.3573989868164,1.173,Humid,Humid (moderate),exact
CA-WP1,54.953800201416016,-112.46700286865234,0.7069000000000001,Humid,Humid (low),exact
CA-WP2,55.537498474121094,-112.33399963378906,0.7561,Humid,Humid (low),exact
CA-WP3,54.470001220703125,-113.31999969482422,0.7160000000000001,Humid,Humid (low),exact
CG-Tch,-4.289169788360596,11.656399726867676,1.1685,Humid,Humid (moderate),exact
CH-Oe1,47.28559875488281,7.732140064239502,1.5710000000000002,Humid,Humid (moderate),exact
CH-Oe2,47.28630065917969,7.734330177307129,1.5711000000000002,Humid,Humid (moderate),exact
CN-Anh,33,117,0.6877,Humid,Humid (low),exact
CN-Bed,39.53060150146485,116.2519989013672,0.49400000000000005,Semi-Arid,Semi-Arid,exact
CN-Cha,42.40250015258789,128.0959930419922,0.9411,Humid,Humid (low),exact
CN-Do1,31.516700744628903,121.96099853515624,0.9021,Humid,Humid (low),exact
CN-Do2,31.584699630737305,121.90299987792967,NA,NA,NA,exact
CN-Do3,31.51689910888672,121.97200012207033,NA,NA,NA,exact
CN-Du1,42.04560089111328,116.6709976196289,0.3986,Semi-Arid,Semi-Arid,exact
CN-Du2,42.04669952392578,116.28399658203124,0.3846,Semi-Arid,Semi-Arid,exact
CN-HaM,37.369998931884766,101.18000030517578,0.7054,Humid,Humid (low),exact
CN-Hny,29.309999465942383,112.51000213623048,1.2215,Humid,Humid (moderate),exact
CN-Ku1,40.538299560546875,108.69400024414062,0.1708,Arid,Arid,exact
CN-Ku2,40.38079833984375,108.54900360107422,0.1716,Arid,Arid,exact
CN-Xfs,44.1341667175293,116.32861328125,0.2515,Semi-Arid,Semi-Arid,exact
CN-Xi1,43.54583358764648,116.6777801513672,0.3111,Semi-Arid,Semi-Arid,exact
CN-Xi2,43.55440139770508,116.6709976196289,0.3104,Semi-Arid,Semi-Arid,exact
CZ-BK1,49.50260162353515,18.538400650024418,1.7087,Humid,Humid (moderate),exact
CZ-BK2,49.49530029296875,18.544700622558594,1.7292,Humid,Humid (moderate),exact
CZ-wet,49.025001525878906,14.772000312805176,0.8952,Humid,Humid (low),exact
DE-Bay,50.14189910888672,11.866900444030762,1.8325,Humid,Humid (moderate),exact
DE-Geb,51.100101470947266,10.914299964904783,0.6945,Humid,Humid (low),exact
DE-Gri,50.949501037597656,13.512499809265137,1.0549,Humid,Humid (moderate),exact
DE-Hai,51.07929992675781,10.45199966430664,1.2737,Humid,Humid (moderate),exact
DE-Har,47.93439865112305,7.60099983215332,1.0071,Humid,Humid (moderate),exact
DE-Kli,50.89289855957031,13.522500038146973,1.1633,Humid,Humid (moderate),exact
DE-Meh,51.275299072265625,10.655500411987305,1.0175,Humid,Humid (moderate),exact
DE-Tha,50.963600158691406,13.566900253295898,1.0115,Humid,Humid (moderate),exact
DE-Wet,50.45349884033203,11.457500457763672,1.7816,Humid,Humid (moderate),exact
DK-Fou,56.48419952392578,9.587220191955566,1.2038,Humid,Humid (moderate),exact
DK-Lva,55.68330001831055,12.08329963684082,0.9378000000000001,Humid,Humid (low),exact
DK-Ris,55.53030014038086,12.097200393676758,0.9403,Humid,Humid (low),exact
DK-Sor,55.48690032958984,11.64579963684082,0.9109,Humid,Humid (low),exact
ES-ES1,39.34600067138672,-0.31880998611450195,0.31010000000000004,Semi-Arid,Semi-Arid,exact
ES-ES2,39.2755012512207,-0.3152199983596802,0.3194,Semi-Arid,Semi-Arid,exact
ES-LJu,36.928199768066406,-2.750469923019409,0.43860000000000005,Semi-Arid,Semi-Arid,exact
ES-LMa,39.94150161743164,-5.773359775543213,0.3694,Semi-Arid,Semi-Arid,exact
ES-VDA,42.152198791503906,1.4485000371932983,1.0477,Humid,Humid (moderate),exact
FI-Hyy,61.8474006652832,24.2947998046875,1.3074000000000001,Humid,Humid (moderate),exact
FI-Kaa,69.14070129394531,27.295000076293945,1.1126,Humid,Humid (moderate),exact
FI-Sii,61.83300018310547,24.19300079345703,1.2971000000000001,Humid,Humid (moderate),exact
FI-Sod,67.36190032958984,26.637800216674805,1.2008,Humid,Humid (moderate),exact
FR-Aur,43.54940032958984,1.1077799797058103,0.8912,Humid,Humid (low),exact
FR-Fon,48.47629928588867,2.7801499366760254,0.8134,Humid,Humid (low),exact
FR-Gri,48.84400177001953,1.952430009841919,0.7931,Humid,Humid (low),exact
FR-Hes,48.674198150634766,7.064620018005371,1.0959,Humid,Humid (moderate),exact
FR-Lam,43.49330139160156,1.237220048904419,0.8122,Humid,Humid (low),exact
FR-LBr,44.717098236083984,-0.7692999839782715,1.0612000000000001,Humid,Humid (moderate),exact
FR-Lq1,45.644100189208984,2.737030029296875,1.1932,Humid,Humid (moderate),exact
FR-Lq2,45.639198303222656,2.737030029296875,1.1869,Humid,Humid (moderate),exact
FR-Pue,43.74140167236328,3.595829963684082,0.5819,Dry Sub-Humid,Dry Sub-Humid,exact
GF-Guy,5.277699947357178,-52.92879867553711,2.0698000000000003,Humid,Hyper-Humid,exact
HU-Bug,46.69110107421875,19.601299285888672,0.5878,Dry Sub-Humid,Dry Sub-Humid,exact
HU-Mat,47.846900939941406,19.72599983215332,0.6742,Humid,Humid (low),exact
ID-Pag,2.3450000286102295,114.03600311279295,3.2188000000000003,Humid,Hyper-Humid,exact
IE-Ca1,52.85879898071289,-6.918139934539795,1.3858000000000001,Humid,Humid (moderate),exact
IE-Dri,51.986698150634766,-8.751810073852539,1.9944000000000002,Humid,Humid (moderate),exact
IL-Yat,31.344999313354492,35.05149841308594,0.1738,Arid,Arid,exact
IS-Gun,63.83330154418945,-20.216699600219727,2.6545,Humid,Hyper-Humid,exact
IT-Amp,41.90409851074219,13.605199813842772,0.9519000000000001,Humid,Humid (low),exact
IT-BCi,40.523799896240234,14.95740032196045,0.9843000000000001,Humid,Humid (low),exact
IT-Be2,46.00310134887695,13.025699615478516,1.5454,Humid,Humid (moderate),exact
IT-Bon,39.47779846191406,16.534700393676758,0.9817,Humid,Humid (low),exact
IT-Cas,45.06284713745117,8.668539047241211,0.9616,Humid,Humid (low),exact
IT-Col,41.84939956665039,13.58810043334961,0.9265,Humid,Humid (low),exact
IT-Cpz,41.7052001953125,12.376099586486816,0.7343000000000001,Humid,Humid (low),exact
IT-Lav,45.955299377441406,11.281200408935549,0.6942,Humid,Humid (low),exact
IT-Lec,43.30459976196289,11.270600318908691,0.7505000000000001,Humid,Humid (low),exact
IT-LMa,45.581298828125,7.154630184173584,2.5033000000000003,Humid,Hyper-Humid,exact
IT-Mal,46.11669921875,11.702799797058104,1.1311,Humid,Humid (moderate),exact
IT-MBo,46.01559829711914,11.04669952392578,0.4801,Semi-Arid,Semi-Arid,exact
IT-Noe,40.60599899291992,8.151000022888184,0.6914,Humid,Humid (low),exact
IT-Non,44.68980026245117,11.088700294494627,0.745,Humid,Humid (low),exact
IT-Pia,42.58390045166016,10.078399658203123,0.33530000000000004,Semi-Arid,Semi-Arid,exact
IT-PT1,45.20090103149414,9.061039924621582,0.9817,Humid,Humid (low),exact
IT-Ren,46.587799072265625,11.434700012207031,0.9963000000000001,Humid,Humid (low),exact
IT-Ro1,42.40810012817383,11.93000030517578,0.3517,Semi-Arid,Semi-Arid,exact
IT-Ro2,42.39030075073242,11.920900344848633,0.3568,Semi-Arid,Semi-Arid,exact
IT-SRo,43.72785949707031,10.28444004058838,0.8992,Humid,Humid (low),exact
IT-Vig,45.31666564941406,8.850000381469727,1.1124,Humid,Humid (moderate),exact
JP-Mas,36.05397033691406,140.02691650390625,1.3345,Humid,Humid (moderate),exact
JP-Tak,36.14619827270508,137.42300415039062,2.2982,Humid,Hyper-Humid,exact
JP-Tef,45.056339263916016,142.106201171875,1.7323000000000002,Humid,Humid (moderate),exact
JP-Tom,42.739498138427734,141.514892578125,1.9005,Humid,Humid (moderate),exact
KR-Hnm,34.54999923706055,126.56999969482422,1.2584,Humid,Humid (moderate),exact
KR-Kw1,37.74860000610352,127.16300201416016,1.5592000000000001,Humid,Humid (moderate),exact
NL-Ca1,51.97100067138672,4.927000045776367,1.2301,Humid,Humid (moderate),exact
NL-Haa,52.00310134887695,4.805500030517578,1.2751000000000001,Humid,Humid (moderate),exact
NL-Hor,52.028900146484375,5.067500114440918,1.1404,Humid,Humid (moderate),exact
NL-Lan,51.9536018371582,4.902900218963623,1.2263000000000002,Humid,Humid (moderate),exact
NL-Loo,52.16790008544922,5.743959903717041,1.2784,Humid,Humid (moderate),exact
NL-Lut,53.39889907836914,6.355999946594238,1.3786,Humid,Humid (moderate),exact
NL-Mol,51.650001525878906,4.638999938964844,1.159,Humid,Humid (moderate),exact
PL-wet,52.76219940185547,16.30940055847168,0.7564000000000001,Humid,Humid (low),exact
PT-Esp,38.639400482177734,-8.601799964904785,0.5483,Dry Sub-Humid,Dry Sub-Humid,exact
PT-Mi1,38.54069900512695,-8.000399589538574,0.4632,Semi-Arid,Semi-Arid,exact
PT-Mi2,38.47650146484375,-8.024550437927246,0.45170000000000005,Semi-Arid,Semi-Arid,exact
RU-Che,68.61470031738281,161.33900451660156,0.3793,Semi-Arid,Semi-Arid,exact
RU-Cok,70.61669921875,147.88299560546875,0.7129000000000001,Humid,Humid (low),exact
RU-Fyo,56.461669921875,32.92388916015625,1.1464,Humid,Humid (moderate),exact
RU-Ha1,54.72529983520508,90.002197265625,0.6782,Humid,Humid (low),exact
RU-Ha2,54.773101806640625,89.95670318603516,0.6738000000000001,Humid,Humid (low),exact
RU-Ha3,54.704551696777344,89.077850341796875,1.1175000000000002,Humid,Humid (moderate),exact
RU-Zot,60.80080032348633,89.350799560546875,1.0614000000000001,Humid,Humid (moderate),exact
SE-Abi,68.36238861083984,18.794750213623047,0.8903000000000001,Humid,Humid (low),exact
SE-Deg,64.18329620361328,19.549999237060547,1.3144,Humid,Humid (moderate),exact
SE-Faj,56.265499114990234,13.553500175476074,1.6004,Humid,Humid (moderate),exact
SE-Fla,64.11280059814453,19.456899642944336,1.3834,Humid,Humid (moderate),exact
SE-Nor,60.08649826049805,17.479503631591797,1.0546,Humid,Humid (moderate),exact
SE-Sk1,60.125,17.918100357055664,1.0867,Humid,Humid (moderate),exact
SE-Sk2,60.129669189453125,17.840059280395508,1.1169,Humid,Humid (moderate),exact
SE-St1,68.36669921875,19.049694061279297,0.9686,Humid,Humid (low),exact
SK-Tat,49.12080001831055,20.16349983215332,1.6271,Humid,Humid (moderate),exact
TW-Tar,24.031200408935547,120.68800354003906,1.4628,Humid,Humid (moderate),exact
UK-AMo,55.79169845581055,-3.2388899326324463,1.6358000000000001,Humid,Humid (moderate),exact
UK-EBu,55.86600112915039,-3.205780029296875,1.3010000000000002,Humid,Humid (moderate),exact
UK-ESa,55.90694046020508,-2.858609914779663,1.2572,Humid,Humid (moderate),exact
UK-Gri,56.60721969604492,-3.7980599403381343,2.4888,Humid,Hyper-Humid,exact
UK-Ham,51.153533935546875,-0.858299970626831,1.1601000000000001,Humid,Humid (moderate),exact
UK-Her,51.78379821777344,-0.4760800004005432,1.0178,Humid,Humid (moderate),exact
UK-PL3,51.45000076293945,-1.266669988632202,1.0512000000000001,Humid,Humid (moderate),exact
UK-Tad,51.20709991455078,-2.8286399841308594,1.2364000000000002,Humid,Humid (moderate),exact
US-ARb,35.54970169067383,-98.04019927978516,0.5024000000000001,Dry Sub-Humid,Dry Sub-Humid,exact
US-ARc,35.54648971557617,-98.04000091552734,0.5024000000000001,Dry Sub-Humid,Dry Sub-Humid,exact
US-ARM,36.60580062866211,-97.488800048828125,0.5599000000000001,Dry Sub-Humid,Dry Sub-Humid,exact
US-Atq,70.46959686279297,-157.40899658203125,0.5095000000000001,Dry Sub-Humid,Dry Sub-Humid,exact
US-Aud,31.590700149536133,-110.51000213623048,0.2354,Semi-Arid,Semi-Arid,exact
US-Bar,44.06460189819336,-71.28807830810547,1.53,Humid,Humid (moderate),exact
US-Bkg,44.34529876708984,-96.83619689941406,0.5779000000000001,Dry Sub-Humid,Dry Sub-Humid,exact
US-Blo,38.89519882202149,-120.63275146484376,1.1022,Humid,Humid (moderate),exact
US-Bn1,63.9197998046875,-145.3780059814453,0.5158,Dry Sub-Humid,Dry Sub-Humid,exact
US-Bn2,63.9197998046875,-145.3780059814453,0.5158,Dry Sub-Humid,Dry Sub-Humid,exact
US-Bn3,63.922698974609375,-145.74400329589844,0.5585,Dry Sub-Humid,Dry Sub-Humid,exact
US-Bo1,40.00619888305664,-88.29039764404297,0.9748,Humid,Humid (low),exact
US-Bo2,40.00899887084961,-88.29000091552734,0.9711000000000001,Humid,Humid (low),exact
US-Brw,71.32250213623047,-156.6259002685547,0.5747,Dry Sub-Humid,Dry Sub-Humid,exact
US-CaV,39.06330108642578,-79.4207992553711,1.3341,Humid,Humid (moderate),exact
US-Dk1,35.97119903564453,-79.09339904785156,0.991,Humid,Humid (low),exact
US-Dk2,35.97359848022461,-79.10040283203125,0.9923000000000001,Humid,Humid (low),exact
US-Dk3,35.97819900512695,-79.09420013427734,0.9898,Humid,Humid (low),exact
US-Fmf,35.142601013183594,-111.72730255126952,0.3899,Semi-Arid,Semi-Arid,exact
US-FPe,48.30770111083984,-105.10189819335938,0.2376,Semi-Arid,Semi-Arid,exact
US-FR2,29.949499130249023,-97.99620056152344,0.5491,Dry Sub-Humid,Dry Sub-Humid,exact
US-Fuf,35.0890007019043,-111.76200103759766,0.4035,Semi-Arid,Semi-Arid,exact
US-Fwf,35.44540023803711,-111.77179718017578,0.36060000000000003,Semi-Arid,Semi-Arid,exact
US-Goo,34.25469970703125,-89.87349700927734,1.1041,Humid,Humid (moderate),exact
US-Ha1,42.53779983520508,-72.17150115966797,1.3047,Humid,Humid (moderate),exact
US-Ha2,42.53929901123047,-72.17790222167969,1.3155000000000001,Humid,Humid (moderate),exact
US-Ho1,45.2041015625,-68.74019622802734,1.3368,Humid,Humid (moderate),exact
US-Ho2,45.20909881591797,-68.74700164794922,1.3324,Humid,Humid (moderate),exact
US-IB1,41.85929870605469,-88.22270202636719,0.9275,Humid,Humid (low),exact
US-IB2,41.840599060058594,-88.240997314453125,0.9414,Humid,Humid (low),exact
US-Ivo,68.48650360107422,-155.75,0.6232,Dry Sub-Humid,Dry Sub-Humid,exact
US-KS1,28.45829963684082,-80.6708984375,0.8075,Humid,Humid (low),exact
US-KS2,28.60860061645508,-80.67150115966797,0.8412000000000001,Humid,Humid (low),exact
US-Los,46.08269882202149,-89.97920227050781,1.1031,Humid,Humid (moderate),exact
US-LPH,42.541900634765625,-72.18499755859375,1.3031000000000001,Humid,Humid (moderate),exact
US-Me1,44.57939910888672,-121.5,0.5471,Dry Sub-Humid,Dry Sub-Humid,exact
US-Me2,44.452301025390625,-121.55740356445312,0.8419000000000001,Humid,Humid (low),exact
US-Me3,44.315399169921875,-121.60780334472656,0.4798,Semi-Arid,Semi-Arid,exact
US-Me4,44.49919891357422,-121.62239837646484,0.7029000000000001,Humid,Humid (low),exact
US-MMS,39.32310104370117,-86.41310119628906,1.0892,Humid,Humid (moderate),exact
US-MOz,38.74409866333008,-92.1999969482422,0.8584,Humid,Humid (low),exact
US-NC1,35.811500549316406,-76.71150207519531,1.0539,Humid,Humid (moderate),exact
US-NC2,35.8031005859375,-76.66790008544922,1.0509,Humid,Humid (moderate),exact
US-Ne1,41.16510009765625,-96.47660064697266,0.6666000000000001,Humid,Humid (low),exact
US-Ne2,41.16490173339844,-96.47010040283205,0.6686000000000001,Humid,Humid (low),exact
US-Ne3,41.1796989440918,-96.439697265625,0.6652,Humid,Humid (low),exact
US-NR1,40.032901763916016,-105.5459976196289,0.5048,Dry Sub-Humid,Dry Sub-Humid,exact
US-Oho,41.554500579833984,-83.84380340576172,0.8818,Humid,Humid (low),exact
US-PFa,45.945899963378906,-90.27230072021484,1.0739,Humid,Humid (moderate),exact
US-SO2,33.3739013671875,-116.62288665771484,0.33290000000000003,Semi-Arid,Semi-Arid,exact
US-SO3,33.377201080322266,-116.62268829345705,0.3513,Semi-Arid,Semi-Arid,exact
US-SO4,33.3843994140625,-116.64025115966795,0.3411,Semi-Arid,Semi-Arid,exact
US-SP1,29.738100051879883,-82.21880340576172,0.9545,Humid,Humid (low),exact
US-SP2,29.764799118041992,-82.24479675292969,0.9529000000000001,Humid,Humid (low),exact
US-SP3,29.75480079650879,-82.163299560546875,0.9449000000000001,Humid,Humid (low),exact
US-SP4,29.802799224853516,-82.2031021118164,0.9530000000000001,Humid,Humid (low),exact
US-SRM,31.821399688720703,-110.86599731445312,0.22030000000000002,Semi-Arid,Semi-Arid,exact
US-Syv,46.242000579833984,-89.34770202636719,1.1236000000000002,Humid,Humid (moderate),exact
US-Ton,38.43159866333008,-120.96600341796876,0.4123,Semi-Arid,Semi-Arid,exact
US-UMB,45.55979919433594,-84.71379852294922,0.9573,Humid,Humid (low),exact
US-Var,38.413299560546875,-120.9507293701172,0.4007,Semi-Arid,Semi-Arid,exact
US-WBW,35.95880126953125,-84.28739929199219,1.1607,Humid,Humid (moderate),exact
US-WCr,45.80590057373047,-90.07990264892578,1.096,Humid,Humid (moderate),exact
US-Wi0,46.61880111694336,-91.0813980102539,0.9983000000000001,Humid,Humid (low),exact
US-Wi1,46.730499267578125,-91.23290252685548,0.9993000000000001,Humid,Humid (low),exact
US-Wi2,46.6869010925293,-91.152801513671875,1.0269000000000001,Humid,Humid (moderate),exact
US-Wi4,46.73929977416992,-91.16629791259766,1.0059,Humid,Humid (moderate),exact
US-Wi5,46.653099060058594,-91.08580017089844,1.0082,Humid,Humid (moderate),exact
US-Wi6,46.624900817871094,-91.29820251464844,1.0096,Humid,Humid (moderate),exact
US-Wi7,46.64910125732422,-91.06929779052734,1.0073,Humid,Humid (moderate),exact
US-Wi8,46.7223014831543,-91.25240325927734,1.0063,Humid,Humid (moderate),exact
US-Wi9,46.61880111694336,-91.0813980102539,0.9983000000000001,Humid,Humid (low),exact
US-Wkg,31.736499786376953,-109.94200134277344,0.20070000000000002,Semi-Arid,Semi-Arid,exact
US-Wrc,45.820499420166016,-121.9520034790039,2.2241,Humid,Hyper-Humid,exact
VU-Coc,-15.442700386047363,167.19200134277344,1.9225,Humid,Humid (moderate),exact
ZA-Kru,-25.019699096679688,31.49690055847168,0.44170000000000004,Semi-Arid,Semi-Arid,exact
