site_id,location_lat,location_long,trendy_et_median_value,trendy_et_median_method,trendy_et_median_bin,trendy_et_median_bin_label,trendy_et_median_bin_30,trendy_et_median_bin_12,trendy_et_median_bin_18,trendy_et_median_bin_20
AR-Bal,-37.7596,-58.3024,665.5504150390625,exact,6,634.7–968.6 mm yr-1,21,9,13,14
AR-CCa,-35.621,-61.3181,769.0166625976564,exact,6,634.7–968.6 mm yr-1,23,10,14,15
AR-CCg,-35.9244,-61.1855,769.0166625976564,exact,6,634.7–968.6 mm yr-1,23,10,14,15
AR-TF1,-54.9733,-66.7335,305.5079345703125,exact,4,263.9–394.0 mm yr-1,13,6,8,9
AR-TF2,-54.8269,-68.4549,315.72100830078125,exact,4,263.9–394.0 mm yr-1,13,6,8,9
BR-CST,-7.9682,-38.3842,581.6319580078125,exact,5,394.0–634.7 mm yr-1,20,9,12,14
BR-ITA,-23.0604,-48.6467,915.5062255859376,exact,6,634.7–968.6 mm yr-1,25,10,15,17
BR-Ji3,-10.1866,-61.8725,1090.2716064453125,exact,7,>968.6 mm yr-1,30,12,18,20
BR-Ma2,-2.6091,-60.2093,1175.1846923828125,exact,7,>968.6 mm yr-1,30,12,18,20
BR-Ma3,-2.3907,-59.8835,1177.093017578125,exact,7,>968.6 mm yr-1,30,12,18,20
BR-Npw,-16.498,-56.412,1024.5352783203125,exact,7,>968.6 mm yr-1,30,12,18,20
BR-Sa1,-2.8567,-54.9589,1111.390625,exact,7,>968.6 mm yr-1,30,12,18,20
BR-Sa3,-3.018,-54.9714,1118.89794921875,exact,7,>968.6 mm yr-1,30,12,18,20
BR-SM1,-30.2771,-53.1479,887.019775390625,exact,6,634.7–968.6 mm yr-1,25,10,15,17
BR-Xpw,-16.373,-56.461,1024.5352783203125,exact,7,>968.6 mm yr-1,30,12,18,20
CA-ARB,52.695,-83.9452,323.6162414550781,exact,4,263.9–394.0 mm yr-1,14,6,9,9
CA-ARF,52.7008,-83.955,323.6162414550781,exact,4,263.9–394.0 mm yr-1,14,6,9,9
CA-BOU,50.5244,-63.2064,356.5845642089844,exact,4,263.9–394.0 mm yr-1,15,7,9,10
CA-Ca1,49.8673,-125.3336,460.1975708007813,exact,5,394.0–634.7 mm yr-1,18,8,11,12
CA-Ca2,49.8705,-125.2909,460.1975708007813,exact,5,394.0–634.7 mm yr-1,18,8,11,12
CA-Ca3,49.5346,-124.9004,432.8990173339844,exact,5,394.0–634.7 mm yr-1,17,7,11,12
CA-Cbo,44.3184,-79.9341,516.54071044921875,exact,5,394.0–634.7 mm yr-1,19,8,12,13
CA-CF1,58.6658,-93.83,223.15382385253903,exact,3,143.4–263.9 mm yr-1,9,5,6,7
CA-CF2,58.6658,-93.83,223.15382385253903,exact,3,143.4–263.9 mm yr-1,9,5,6,7
CA-CF3,58.6658,-93.8304,223.15382385253903,exact,3,143.4–263.9 mm yr-1,9,5,6,7
CA-DB2,49.119,-122.9951,487.0632019042969,exact,5,394.0–634.7 mm yr-1,18,8,11,13
CA-DBB,49.1293,-122.9849,487.0632019042969,exact,5,394.0–634.7 mm yr-1,18,8,11,13
CA-DSM,49.0887,-122.8954,487.0632019042969,exact,5,394.0–634.7 mm yr-1,18,8,11,13
CA-EM1,50.3623,-100.2024,372.9131164550781,exact,4,263.9–394.0 mm yr-1,15,7,10,11
CA-EM2,50.3706,-100.5339,382.1851806640625,exact,4,263.9–394.0 mm yr-1,16,7,10,11
CA-Gro,48.2167,-82.1556,383.2193298339844,exact,4,263.9–394.0 mm yr-1,16,7,10,11
CA-HPC,68.3203,-133.5188,172.98507690429688,exact,3,143.4–263.9 mm yr-1,7,4,5,5
CA-KLP,51.5902,-81.7684,354.1218566894531,exact,4,263.9–394.0 mm yr-1,15,6,9,10
CA-LP1,55.1119,-122.8414,357.32696533203125,exact,4,263.9–394.0 mm yr-1,15,7,9,10
CA-LU1,59.5951,-117.2862,308.8749694824219,exact,4,263.9–394.0 mm yr-1,13,6,8,9
CA-LU2,59.4405,-117.2422,319.931396484375,exact,4,263.9–394.0 mm yr-1,13,6,8,9
CA-MA1,50.1645,-97.8762,404.0534362792969,exact,5,394.0–634.7 mm yr-1,16,7,10,11
CA-MA2,50.171,-97.8762,404.0534362792969,exact,5,394.0–634.7 mm yr-1,16,7,10,11
CA-MA3,50.1774,-97.8686,404.0534362792969,exact,5,394.0–634.7 mm yr-1,16,7,10,11
CA-Man,55.8796,-98.4808,323.7563781738281,exact,4,263.9–394.0 mm yr-1,14,6,9,9
CA-Mer,45.4094,-75.5186,505.5522155761719,exact,5,394.0–634.7 mm yr-1,19,8,12,13
CA-Mtk,72.6695,-77.9981,46.938720703125,exact,2,5.0–143.4 mm yr-1,3,2,2,3
CA-Na1,46.4722,-67.1,466.2590026855469,exact,5,394.0–634.7 mm yr-1,18,8,11,12
CA-Ojp,53.9163,-104.692,360.9790954589844,exact,4,263.9–394.0 mm yr-1,15,7,9,10
CA-PB1,54.9417,-83.4579,280.1656494140625,exact,4,263.9–394.0 mm yr-1,12,5,8,8
CA-PB2,54.9389,-83.4736,280.1656494140625,exact,4,263.9–394.0 mm yr-1,12,5,8,8
CA-Qc2,49.7598,-74.5711,395.6280822753906,exact,5,394.0–634.7 mm yr-1,16,7,10,11
CA-Qfo,49.6925,-74.3421,386.6043395996094,exact,4,263.9–394.0 mm yr-1,16,7,10,11
CA-RBM,49.1313,-123.1964,444.1163635253906,exact,5,394.0–634.7 mm yr-1,17,8,11,12
CA-SCB,61.3089,-121.2984,299.4892883300781,exact,4,263.9–394.0 mm yr-1,13,6,8,9
CA-SCC,61.3079,-121.2992,299.4892883300781,exact,4,263.9–394.0 mm yr-1,13,6,8,9
CA-SF1,54.485,-105.8176,376.0792541503906,exact,4,263.9–394.0 mm yr-1,15,7,10,11
CA-SF2,54.2539,-105.8775,376.0792541503906,exact,4,263.9–394.0 mm yr-1,15,7,10,11
CA-SF3,54.0916,-106.0053,373.7274475097656,exact,4,263.9–394.0 mm yr-1,15,7,10,11
CA-SJ2,53.945,-104.649,360.9790954589844,exact,4,263.9–394.0 mm yr-1,15,7,9,10
CA-SMC,63.1534,-123.2522,271.89239501953125,exact,4,263.9–394.0 mm yr-1,11,5,7,8
CA-TP1,42.6609,-80.5595,552.3470458984375,exact,5,394.0–634.7 mm yr-1,20,8,12,13
CA-TP2,42.7744,-80.4588,521.9127197265625,exact,5,394.0–634.7 mm yr-1,19,8,12,13
CA-TP3,42.7068,-80.3483,521.9127197265625,exact,5,394.0–634.7 mm yr-1,19,8,12,13
CA-TP4,42.7102,-80.3574,521.9127197265625,exact,5,394.0–634.7 mm yr-1,19,8,12,13
CA-TPA,42.6947,-80.3487,521.9127197265625,exact,5,394.0–634.7 mm yr-1,19,8,12,13
CA-TPD,42.6353,-80.5577,552.3470458984375,exact,5,394.0–634.7 mm yr-1,20,8,12,13
CA-TVC,68.7462,-133.5017,156.59466552734375,exact,3,143.4–263.9 mm yr-1,7,4,5,5
CL-ACF,-40.1726,-73.4439,671.5965576171875,exact,6,634.7–968.6 mm yr-1,21,9,13,14
CL-SDF,-41.883,-73.676,630.2615966796875,exact,5,394.0–634.7 mm yr-1,21,9,13,14
CL-SDP,-41.879,-73.666,630.2615966796875,exact,5,394.0–634.7 mm yr-1,21,9,13,14
CR-Fsc,10.4189,-85.4732,1137.9222412109375,exact,7,>968.6 mm yr-1,30,12,18,20
MX-Aog,26.9968,-108.7892,507.5567932128906,exact,5,394.0–634.7 mm yr-1,19,8,12,13
MX-PMm,20.8462,-86.8992,1092.316650390625,exact,7,>968.6 mm yr-1,30,12,18,20
MX-Tes,27.8446,-109.2977,527.9259033203125,exact,5,394.0–634.7 mm yr-1,19,8,12,13
PE-QFR,-3.8344,-73.319,1262.9129638671875,exact,7,>968.6 mm yr-1,30,12,18,20
PR-xGU,17.9696,-66.8687,1008.443603515625,exact,7,>968.6 mm yr-1,30,12,18,20
PR-xLA,18.0212,-67.0769,984.8255615234376,exact,7,>968.6 mm yr-1,26,11,16,17
US-A03,70.4953,-149.8823,122.4742202758789,exact,2,5.0–143.4 mm yr-1,6,3,4,4
US-A10,71.3242,-156.6149,79.7755126953125,exact,2,5.0–143.4 mm yr-1,4,3,3,3
US-A32,36.8193,-97.8198,692.09002685546875,exact,6,634.7–968.6 mm yr-1,22,9,13,15
US-A37,36.3106,-97.928,702.7076416015625,exact,6,634.7–968.6 mm yr-1,22,9,13,15
US-A39,36.3776,-96.069,724.5789794921875,exact,6,634.7–968.6 mm yr-1,22,9,14,15
US-A74,36.8085,-97.5489,692.09002685546875,exact,6,634.7–968.6 mm yr-1,22,9,13,15
US-ABa,27.1301,-81.2011,987.5606689453124,exact,7,>968.6 mm yr-1,26,11,16,17
US-ABb,27.1346,-81.2031,987.5606689453124,exact,7,>968.6 mm yr-1,26,11,16,17
US-ABc,27.1633,-81.1873,987.5606689453124,exact,7,>968.6 mm yr-1,26,11,16,17
US-ABd,27.1699,-81.2152,987.5606689453124,exact,7,>968.6 mm yr-1,26,11,16,17
US-ABe,27.1656,-81.2161,987.5606689453124,exact,7,>968.6 mm yr-1,26,11,16,17
US-ADR,36.7653,-116.6933,93.8951416015625,exact,2,5.0–143.4 mm yr-1,5,3,3,4
US-Akn,33.3825,-81.5653,838.2723999023436,exact,6,634.7–968.6 mm yr-1,24,10,15,16
US-ALQ,46.0308,-89.6067,489.5101013183594,exact,5,394.0–634.7 mm yr-1,18,8,11,13
US-AR1,36.4267,-99.42,579.11083984375,exact,5,394.0–634.7 mm yr-1,20,9,12,14
US-AR2,36.6358,-99.5975,559.46588134765625,exact,5,394.0–634.7 mm yr-1,20,8,12,13
US-ARb,35.5497,-98.0402,661.3397216796875,exact,6,634.7–968.6 mm yr-1,21,9,13,14
US-ARc,35.5465,-98.04,661.3397216796875,exact,6,634.7–968.6 mm yr-1,21,9,13,14
US-ARM,36.6058,-97.4888,719.3955078125,exact,6,634.7–968.6 mm yr-1,22,9,14,15
US-ASH,36.1697,-120.201,255.7493896484375,exact,3,143.4–263.9 mm yr-1,11,5,7,8
US-ASM,36.1777,-120.2026,255.7493896484375,exact,3,143.4–263.9 mm yr-1,11,5,7,8
US-Aud,31.5907,-110.5104,363.3477478027344,exact,4,263.9–394.0 mm yr-1,15,7,9,10
US-Bar,44.0646,-71.2881,480.1797790527344,exact,5,394.0–634.7 mm yr-1,18,8,11,12
US-Bi1,38.0992,-121.4993,368.7318115234375,exact,4,263.9–394.0 mm yr-1,15,7,10,10
US-Bi2,38.1091,-121.5351,388.1703186035156,exact,4,263.9–394.0 mm yr-1,16,7,10,11
US-BRG,39.2167,-86.5406,669.37823486328125,exact,6,634.7–968.6 mm yr-1,21,9,13,14
US-BZB,64.6955,-148.3208,238.8722381591797,exact,3,143.4–263.9 mm yr-1,10,5,7,7
US-BZF,64.7013,-148.3121,238.8722381591797,exact,3,143.4–263.9 mm yr-1,10,5,7,7
US-BZo,64.6936,-148.33,238.8722381591797,exact,3,143.4–263.9 mm yr-1,10,5,7,7
US-CAK,64.8618,-163.7002,207.1805725097656,exact,3,143.4–263.9 mm yr-1,9,4,6,6
US-CdM,37.5241,-109.7471,296.7003173828125,exact,4,263.9–394.0 mm yr-1,12,6,8,9
US-Ced,39.8379,-74.3791,647.7071533203125,exact,6,634.7–968.6 mm yr-1,21,9,13,14
US-CF1,46.7815,-117.0821,357.47283935546875,exact,4,263.9–394.0 mm yr-1,15,7,9,10
US-CF2,46.784,-117.0908,357.47283935546875,exact,4,263.9–394.0 mm yr-1,15,7,9,10
US-CF3,46.7551,-117.1261,357.47283935546875,exact,4,263.9–394.0 mm yr-1,15,7,9,10
US-CF4,46.7518,-117.1285,357.47283935546875,exact,4,263.9–394.0 mm yr-1,15,7,9,10
US-CGG,37.938,-121.9761,350.66912841796875,exact,4,263.9–394.0 mm yr-1,15,6,9,10
US-ChR,35.9311,-84.3324,758.343017578125,exact,6,634.7–968.6 mm yr-1,23,10,14,15
US-CLF,40.6366,-77.9424,609.2137451171875,exact,5,394.0–634.7 mm yr-1,20,9,13,14
US-Cms,71.3202,-156.6223,79.7755126953125,exact,2,5.0–143.4 mm yr-1,4,3,3,3
US-CMW,31.6637,-110.1777,327.7666015625,exact,4,263.9–394.0 mm yr-1,14,6,9,9
US-Cop,38.09,-109.39,320.2561340332031,exact,4,263.9–394.0 mm yr-1,13,6,8,9
US-CRK,31.4629,-95.3415,832.28656005859375,exact,6,634.7–968.6 mm yr-1,24,10,15,16
US-CRT,41.6285,-83.3471,554.0106201171875,exact,5,394.0–634.7 mm yr-1,20,8,12,13
US-CS1,44.1031,-89.5379,544.78759765625,exact,5,394.0–634.7 mm yr-1,19,8,12,13
US-CS2,44.1467,-89.5002,544.78759765625,exact,5,394.0–634.7 mm yr-1,19,8,12,13
US-CS3,44.1394,-89.5727,544.78759765625,exact,5,394.0–634.7 mm yr-1,19,8,12,13
US-CS4,44.1597,-89.5475,544.78759765625,exact,5,394.0–634.7 mm yr-1,19,8,12,13
US-CS5,44.1095,-89.5377,544.78759765625,exact,5,394.0–634.7 mm yr-1,19,8,12,13
US-CS6,44.4297,-89.544,544.78759765625,exact,5,394.0–634.7 mm yr-1,19,8,12,13
US-CS8,44.4338,-89.5364,544.78759765625,exact,5,394.0–634.7 mm yr-1,19,8,12,13
US-Cst,33.0442,-91.9204,881.02593994140625,exact,6,634.7–968.6 mm yr-1,24,10,15,17
US-Cwt,35.0592,-83.4275,757.42169189453125,exact,6,634.7–968.6 mm yr-1,23,10,14,15
US-DFC,43.3448,-89.7117,600.51507568359375,exact,5,394.0–634.7 mm yr-1,20,9,13,14
US-DFK,43.3453,-89.7154,600.51507568359375,exact,5,394.0–634.7 mm yr-1,20,9,13,14
US-Dix,39.9712,-74.4346,647.7071533203125,exact,6,634.7–968.6 mm yr-1,21,9,13,14
US-Dk1,35.9712,-79.0934,793.1142578125,exact,6,634.7–968.6 mm yr-1,23,10,14,16
US-Dk2,35.9736,-79.1004,793.1142578125,exact,6,634.7–968.6 mm yr-1,23,10,14,16
US-Dk3,35.9782,-79.0942,793.1142578125,exact,6,634.7–968.6 mm yr-1,23,10,14,16
US-Dmg,38.0015,-121.6691,388.1703186035156,exact,4,263.9–394.0 mm yr-1,16,7,10,11
US-DPW,28.0521,-81.4361,946.7945556640624,exact,6,634.7–968.6 mm yr-1,25,11,16,17
US-DS1,38.1335,-121.539,388.1703186035156,exact,4,263.9–394.0 mm yr-1,16,7,10,11
US-DS2,38.1375,-121.514,388.1703186035156,exact,4,263.9–394.0 mm yr-1,16,7,10,11
US-DS3,38.1235,-121.549,388.1703186035156,exact,4,263.9–394.0 mm yr-1,16,7,10,11
US-EA4,29.6633,-98.3816,681.562255859375,exact,6,634.7–968.6 mm yr-1,21,9,13,15
US-EA5,29.3584,-99.9576,475.18023681640625,exact,5,394.0–634.7 mm yr-1,18,8,11,12
US-EA6,29.6561,-99.9588,512.75341796875,exact,5,394.0–634.7 mm yr-1,19,8,12,13
US-EDN,37.6156,-122.114,321.350341796875,exact,4,263.9–394.0 mm yr-1,13,6,9,9
US-EKH,36.8094,-121.7523,396.4926452636719,exact,5,394.0–634.7 mm yr-1,16,7,10,11
US-EKN,36.8357,-121.7328,396.4926452636719,exact,5,394.0–634.7 mm yr-1,16,7,10,11
US-EKP,36.8558,-121.7488,396.4926452636719,exact,5,394.0–634.7 mm yr-1,16,7,10,11
US-Elm,25.5519,-80.7826,1022.3404541015624,exact,7,>968.6 mm yr-1,30,12,18,20
US-EML,63.8784,-149.2536,207.4659881591797,exact,3,143.4–263.9 mm yr-1,9,4,6,6
US-Esm,25.4379,-80.5946,1086.97802734375,exact,7,>968.6 mm yr-1,30,12,18,20
US-EvM,25.3539,-80.381,1068.2672119140625,exact,7,>968.6 mm yr-1,30,12,18,20
US-Fcr,65.3968,-148.9348,224.67872619628903,exact,3,143.4–263.9 mm yr-1,10,5,6,7
US-Fmf,35.1426,-111.7273,381.8478698730469,exact,4,263.9–394.0 mm yr-1,16,7,10,11
US-Fo1,70.085,-148.5671,107.34848022460938,exact,2,5.0–143.4 mm yr-1,5,3,4,4
US-Fo2,70.0229,-148.6598,107.34848022460938,exact,2,5.0–143.4 mm yr-1,5,3,4,4
US-Fuf,35.089,-111.762,381.8478698730469,exact,4,263.9–394.0 mm yr-1,16,7,10,11
US-Fwf,35.4454,-111.7718,381.8478698730469,exact,4,263.9–394.0 mm yr-1,16,7,10,11
US-GLE,41.3665,-106.2399,305.6682434082031,exact,4,263.9–394.0 mm yr-1,13,6,8,9
US-Ha1,42.5378,-72.1715,548.44464111328125,exact,5,394.0–634.7 mm yr-1,20,8,12,13
US-HB1,33.3455,-79.1957,802.1455078125,exact,6,634.7–968.6 mm yr-1,23,10,14,16
US-HB2,33.3242,-79.244,802.1455078125,exact,6,634.7–968.6 mm yr-1,23,10,14,16
US-HB3,33.3482,-79.2322,802.1455078125,exact,6,634.7–968.6 mm yr-1,23,10,14,16
US-HB4,33.2015,-79.2975,802.1455078125,exact,6,634.7–968.6 mm yr-1,23,10,14,16
US-HBK,43.9397,-71.7181,522.53143310546875,exact,5,394.0–634.7 mm yr-1,19,8,12,13
US-Hn2,46.6889,-119.4641,178.30233764648438,exact,3,143.4–263.9 mm yr-1,8,4,5,6
US-Hn3,46.6878,-119.4614,178.30233764648438,exact,3,143.4–263.9 mm yr-1,8,4,5,6
US-Ho2,45.209,-68.747,517.37811279296875,exact,5,394.0–634.7 mm yr-1,19,8,12,13
US-Ho3,45.2072,-68.7265,517.37811279296875,exact,5,394.0–634.7 mm yr-1,19,8,12,13
US-HRA,34.5852,-91.7517,838.91064453125,exact,6,634.7–968.6 mm yr-1,24,10,15,16
US-HRC,34.5888,-91.7517,838.91064453125,exact,6,634.7–968.6 mm yr-1,24,10,15,16
US-Hsm,38.2368,-122.0212,397.72418212890625,exact,5,394.0–634.7 mm yr-1,16,7,10,11
US-HVs,69.1672,-148.8569,130.0198516845703,exact,2,5.0–143.4 mm yr-1,6,3,4,4
US-HWB,40.8608,-77.8488,609.2137451171875,exact,5,394.0–634.7 mm yr-1,20,9,13,14
US-IAB,42.0001,-93.7016,622.350341796875,exact,5,394.0–634.7 mm yr-1,21,9,13,14
US-IAC,41.9984,-93.7016,588.06866455078125,exact,5,394.0–634.7 mm yr-1,20,9,12,14
US-IAM,41.9994,-93.7042,588.06866455078125,exact,5,394.0–634.7 mm yr-1,20,9,12,14
US-ICh,68.6068,-149.2958,132.50074768066406,exact,2,5.0–143.4 mm yr-1,6,3,4,4
US-ICs,68.6058,-149.311,132.50074768066406,exact,2,5.0–143.4 mm yr-1,6,3,4,4
US-ICt,68.6063,-149.3041,132.50074768066406,exact,2,5.0–143.4 mm yr-1,6,3,4,4
US-Jo1,32.582,-106.635,259.2829284667969,exact,3,143.4–263.9 mm yr-1,11,5,7,8
US-Jo2,32.5849,-106.6032,259.2829284667969,exact,3,143.4–263.9 mm yr-1,11,5,7,8
US-KFS,39.0561,-95.1907,694.3011474609375,exact,6,634.7–968.6 mm yr-1,22,9,13,15
US-Kon,39.0824,-96.5603,640.5924072265625,exact,6,634.7–968.6 mm yr-1,21,9,13,14
US-KPL,60.5382,-150.5061,272.77703857421875,exact,4,263.9–394.0 mm yr-1,11,5,7,8
US-KS1,28.4583,-80.6709,900.40399169921875,exact,6,634.7–968.6 mm yr-1,25,10,15,17
US-KS2,28.6086,-80.6715,961.21820068359375,exact,6,634.7–968.6 mm yr-1,26,11,16,17
US-KS3,28.7084,-80.7427,961.21820068359375,exact,6,634.7–968.6 mm yr-1,26,11,16,17
US-LA2,29.8587,-90.2869,921.3145751953124,exact,6,634.7–968.6 mm yr-1,25,10,15,17
US-LA3,29.4936,-89.9153,940.895263671875,exact,6,634.7–968.6 mm yr-1,25,11,15,17
US-Lin,36.3566,-119.0922,249.8097991943359,exact,3,143.4–263.9 mm yr-1,11,5,7,7
US-Los,46.0827,-89.9786,489.5101013183594,exact,5,394.0–634.7 mm yr-1,18,8,11,13
US-LS1,31.5615,-110.1403,327.7666015625,exact,4,263.9–394.0 mm yr-1,14,6,9,9
US-MBP,47.5051,-93.4893,466.4736022949219,exact,5,394.0–634.7 mm yr-1,18,8,11,12
US-Me1,44.5794,-121.5,417.16650390625,exact,5,394.0–634.7 mm yr-1,17,7,10,11
US-Me3,44.3154,-121.6078,423.4471435546875,exact,5,394.0–634.7 mm yr-1,17,7,11,12
US-Me5,44.4372,-121.5668,423.4471435546875,exact,5,394.0–634.7 mm yr-1,17,7,11,12
US-Me6,44.3232,-121.6044,423.4471435546875,exact,5,394.0–634.7 mm yr-1,17,7,11,12
US-Me7,44.4534,-121.5619,423.4471435546875,exact,5,394.0–634.7 mm yr-1,17,7,11,12
US-MEF,39.1006,-105.1024,371.29681396484375,exact,4,263.9–394.0 mm yr-1,15,7,10,11
US-MMS,39.3232,-86.4133,676.22943115234375,exact,6,634.7–968.6 mm yr-1,21,9,13,15
US-MN1,45.6168,-96.1269,491.2110900878906,exact,5,394.0–634.7 mm yr-1,19,8,11,13
US-MN2,45.627,-96.1271,491.2110900878906,exact,5,394.0–634.7 mm yr-1,19,8,11,13
US-MN3,45.6091,-96.1265,491.2110900878906,exact,5,394.0–634.7 mm yr-1,19,8,11,13
US-Mo1,39.2298,-92.1167,723.87725830078125,exact,6,634.7–968.6 mm yr-1,22,9,14,15
US-Mo2,38.9488,-91.9945,724.483642578125,exact,6,634.7–968.6 mm yr-1,22,9,14,15
US-Mo3,39.2322,-92.1493,723.87725830078125,exact,6,634.7–968.6 mm yr-1,22,9,14,15
US-MOz,38.7441,-92.2,722.5723876953125,exact,6,634.7–968.6 mm yr-1,22,9,14,15
US-Mpj,34.4382,-106.2385,311.2225646972656,exact,4,263.9–394.0 mm yr-1,13,6,8,9
US-MtB,32.416,-110.7256,334.2968444824219,exact,4,263.9–394.0 mm yr-1,14,6,9,10
US-Myb,38.0499,-121.765,388.1703186035156,exact,4,263.9–394.0 mm yr-1,16,7,10,11
US-MZA,43.0441,-76.7897,543.4432373046875,exact,5,394.0–634.7 mm yr-1,19,8,12,13
US-NC1,35.8118,-76.7119,841.90106201171875,exact,6,634.7–968.6 mm yr-1,24,10,15,16
US-NC2,35.803,-76.6685,841.90106201171875,exact,6,634.7–968.6 mm yr-1,24,10,15,16
US-NC3,35.799,-76.656,841.90106201171875,exact,6,634.7–968.6 mm yr-1,24,10,15,16
US-NC4,35.7817,-75.9135,737.7730712890625,exact,6,634.7–968.6 mm yr-1,22,9,14,15
US-NC5,36.1565,-78.7878,768.6210327148436,exact,6,634.7–968.6 mm yr-1,23,10,14,15
US-Ne1,41.1651,-96.4766,566.23126220703125,exact,5,394.0–634.7 mm yr-1,20,8,12,14
US-Ne2,41.1649,-96.4701,566.23126220703125,exact,5,394.0–634.7 mm yr-1,20,8,12,14
US-Ne3,41.1797,-96.4397,566.23126220703125,exact,5,394.0–634.7 mm yr-1,20,8,12,14
US-NGB,71.28,-156.6092,79.7755126953125,exact,2,5.0–143.4 mm yr-1,4,3,3,3
US-NGC,64.8618,-163.7002,207.1805725097656,exact,3,143.4–263.9 mm yr-1,9,4,6,6
US-NR1,40.0329,-105.547,339.7502136230469,exact,4,263.9–394.0 mm yr-1,14,6,9,10
US-NR3,40.052,-105.5864,339.7502136230469,exact,4,263.9–394.0 mm yr-1,14,6,9,10
US-NSa,36.6029,-119.5061,259.68609619140625,exact,3,143.4–263.9 mm yr-1,11,5,7,8
US-NSb,36.3354,-120.1183,255.7493896484375,exact,3,143.4–263.9 mm yr-1,11,5,7,8
US-Oho,41.5545,-83.8438,563.61822509765625,exact,5,394.0–634.7 mm yr-1,20,8,12,13
US-ONA,27.3836,-81.9509,987.92230224609375,exact,7,>968.6 mm yr-1,26,11,16,17
US-OPE,39.0293,-76.8457,634.4901123046875,exact,5,394.0–634.7 mm yr-1,21,9,13,14
US-OWC,41.3793,-82.5124,609.33782958984375,exact,5,394.0–634.7 mm yr-1,20,9,13,14
US-PAS,27.3944,-81.951,987.92230224609375,exact,7,>968.6 mm yr-1,26,11,16,17
US-PFb,45.972,-90.3232,509.120361328125,exact,5,394.0–634.7 mm yr-1,19,8,12,13
US-PFc,45.9677,-90.3088,509.120361328125,exact,5,394.0–634.7 mm yr-1,19,8,12,13
US-PFd,45.9689,-90.301,509.120361328125,exact,5,394.0–634.7 mm yr-1,19,8,12,13
US-PFf,45.9458,-90.2944,509.120361328125,exact,5,394.0–634.7 mm yr-1,19,8,12,13
US-PFg,45.9735,-90.2723,509.120361328125,exact,5,394.0–634.7 mm yr-1,19,8,12,13
US-PFh,45.9557,-90.2406,509.120361328125,exact,5,394.0–634.7 mm yr-1,19,8,12,13
US-PFi,45.9749,-90.2327,509.120361328125,exact,5,394.0–634.7 mm yr-1,19,8,12,13
US-PFj,45.9619,-90.227,509.120361328125,exact,5,394.0–634.7 mm yr-1,19,8,12,13
US-PFk,45.9149,-90.3425,509.120361328125,exact,5,394.0–634.7 mm yr-1,19,8,12,13
US-PFL,45.9409,-90.3177,509.120361328125,exact,5,394.0–634.7 mm yr-1,19,8,12,13
US-PFm,45.9207,-90.3099,509.120361328125,exact,5,394.0–634.7 mm yr-1,19,8,12,13
US-PFn,45.9392,-90.2823,509.120361328125,exact,5,394.0–634.7 mm yr-1,19,8,12,13
US-PFp,45.9365,-90.2641,509.120361328125,exact,5,394.0–634.7 mm yr-1,19,8,12,13
US-PFq,45.9271,-90.2475,509.120361328125,exact,5,394.0–634.7 mm yr-1,19,8,12,13
US-PFr,45.9245,-90.2475,509.120361328125,exact,5,394.0–634.7 mm yr-1,19,8,12,13
US-PFt,45.9197,-90.2288,509.120361328125,exact,5,394.0–634.7 mm yr-1,19,8,12,13
US-PLo,42.7496,-70.9157,513.7030029296875,exact,5,394.0–634.7 mm yr-1,19,8,12,13
US-Prr,65.1237,-147.4876,215.7005157470703,exact,3,143.4–263.9 mm yr-1,9,4,6,7
US-PSH,36.2347,-119.9247,196.43191528320312,exact,3,143.4–263.9 mm yr-1,8,4,6,6
US-PSL,36.8276,-120.1397,228.5197601318359,exact,3,143.4–263.9 mm yr-1,10,5,6,7
US-RC1,46.7837,-117.0777,357.47283935546875,exact,4,263.9–394.0 mm yr-1,15,7,9,10
US-RC2,46.7776,-117.0807,357.47283935546875,exact,4,263.9–394.0 mm yr-1,15,7,9,10
US-RC3,46.991,-118.598,243.69113159179688,exact,3,143.4–263.9 mm yr-1,10,5,7,7
US-RC4,46.758,-116.949,413.6740417480469,exact,5,394.0–634.7 mm yr-1,17,7,10,11
US-RC5,47.01,-119.248,196.109619140625,exact,3,143.4–263.9 mm yr-1,8,4,6,6
US-RGA,34.4159,-91.6733,836.91552734375,exact,6,634.7–968.6 mm yr-1,24,10,15,16
US-RGB,39.5782,-121.8579,462.67926025390625,exact,5,394.0–634.7 mm yr-1,18,8,11,12
US-RGF,37.6995,-121.1369,306.0780334472656,exact,4,263.9–394.0 mm yr-1,13,6,8,9
US-RGo,39.6805,-122.0026,429.9253234863281,exact,5,394.0–634.7 mm yr-1,17,7,11,12
US-RGW,33.6216,-91.4306,833.06903076171875,exact,6,634.7–968.6 mm yr-1,24,10,15,16
US-Rls,43.1439,-116.7356,276.09149169921875,exact,4,263.9–394.0 mm yr-1,12,5,7,8
US-Rms,43.0645,-116.7486,276.09149169921875,exact,4,263.9–394.0 mm yr-1,12,5,7,8
US-Ro1,44.7143,-93.0898,482.013671875,exact,5,394.0–634.7 mm yr-1,18,8,11,13
US-Ro2,44.7288,-93.0888,482.013671875,exact,5,394.0–634.7 mm yr-1,18,8,11,13
US-Ro3,44.7217,-93.0893,482.013671875,exact,5,394.0–634.7 mm yr-1,18,8,11,13
US-Ro4,44.6781,-93.0723,482.013671875,exact,5,394.0–634.7 mm yr-1,18,8,11,13
US-Ro5,44.691,-93.0576,482.013671875,exact,5,394.0–634.7 mm yr-1,18,8,11,13
US-Ro6,44.6946,-93.0578,482.013671875,exact,5,394.0–634.7 mm yr-1,18,8,11,13
US-Rpf,65.1198,-147.429,215.7005157470703,exact,3,143.4–263.9 mm yr-1,9,4,6,7
US-RRC,37.3344,-77.2065,738.4185791015625,exact,6,634.7–968.6 mm yr-1,22,9,14,15
US-Rwe,43.0653,-116.7591,276.09149169921875,exact,4,263.9–394.0 mm yr-1,12,5,7,8
US-Rwf,43.1207,-116.7231,276.09149169921875,exact,4,263.9–394.0 mm yr-1,12,5,7,8
US-Rws,43.1675,-116.7132,276.09149169921875,exact,4,263.9–394.0 mm yr-1,12,5,7,8
US-Sag,69.5131,-148.5676,117.9465103149414,exact,2,5.0–143.4 mm yr-1,5,3,4,4
US-SD1,41.2048,-86.0296,652.48046875,exact,6,634.7–968.6 mm yr-1,21,9,13,14
US-SD2,41.1785,-85.9977,659.38848876953125,exact,6,634.7–968.6 mm yr-1,21,9,13,14
US-Seg,34.3603,-106.7003,249.7068328857422,exact,3,143.4–263.9 mm yr-1,11,5,7,7
US-Ses,34.335,-106.7448,249.7068328857422,exact,3,143.4–263.9 mm yr-1,11,5,7,7
US-SHC,39.4315,-120.2398,400.0029296875,exact,5,394.0–634.7 mm yr-1,16,7,10,11
US-Slt,39.9138,-74.596,638.281005859375,exact,6,634.7–968.6 mm yr-1,21,9,13,14
US-Sne,38.0369,-121.7547,388.1703186035156,exact,4,263.9–394.0 mm yr-1,16,7,10,11
US-Snf,38.0402,-121.7272,388.1703186035156,exact,4,263.9–394.0 mm yr-1,16,7,10,11
US-SP1,29.7381,-82.2188,929.49005126953125,exact,6,634.7–968.6 mm yr-1,25,10,15,17
US-SRC,31.9083,-110.8395,363.3477478027344,exact,4,263.9–394.0 mm yr-1,15,7,9,10
US-SRG,31.7894,-110.8277,363.3477478027344,exact,4,263.9–394.0 mm yr-1,15,7,9,10
US-SRM,31.8214,-110.8661,363.3477478027344,exact,4,263.9–394.0 mm yr-1,15,7,9,10
US-Srr,38.2006,-122.0264,397.72418212890625,exact,5,394.0–634.7 mm yr-1,16,7,10,11
US-SRS,31.8173,-110.8508,363.3477478027344,exact,4,263.9–394.0 mm yr-1,15,7,9,10
US-SSH,40.6658,-77.9041,609.2137451171875,exact,5,394.0–634.7 mm yr-1,20,9,13,14
US-Sta,41.3966,-106.8024,304.05535888671875,exact,4,263.9–394.0 mm yr-1,13,6,8,9
US-StJ,39.0882,-75.4372,636.47015380859375,exact,6,634.7–968.6 mm yr-1,21,9,13,14
US-Syv,46.2421,-89.3459,485.4760437011719,exact,5,394.0–634.7 mm yr-1,18,8,11,13
US-TaS,25.1908,-80.6391,1086.97802734375,exact,7,>968.6 mm yr-1,30,12,18,20
US-TKs,68.6337,-149.5769,152.37313842773438,exact,3,143.4–263.9 mm yr-1,7,3,5,5
US-TLR,35.9168,-76.1463,791.1592407226564,exact,6,634.7–968.6 mm yr-1,23,10,14,16
US-Ton,38.4309,-120.966,417.7388000488281,exact,5,394.0–634.7 mm yr-1,17,7,10,11
US-Tw1,38.1074,-121.6469,388.1703186035156,exact,4,263.9–394.0 mm yr-1,16,7,10,11
US-Tw2,38.0969,-121.6365,388.1703186035156,exact,4,263.9–394.0 mm yr-1,16,7,10,11
US-Tw3,38.1152,-121.6469,388.1703186035156,exact,4,263.9–394.0 mm yr-1,16,7,10,11
US-Tw4,38.1027,-121.6413,388.1703186035156,exact,4,263.9–394.0 mm yr-1,16,7,10,11
US-Tw5,38.1072,-121.6426,388.1703186035156,exact,4,263.9–394.0 mm yr-1,16,7,10,11
US-Twt,38.1087,-121.6531,388.1703186035156,exact,4,263.9–394.0 mm yr-1,16,7,10,11
US-Uaf,64.8663,-147.8555,239.53225708007812,exact,3,143.4–263.9 mm yr-1,10,5,7,7
US-UC1,40.7536,-78.0056,605.18353271484375,exact,5,394.0–634.7 mm yr-1,20,9,13,14
US-UC2,40.7559,-77.9998,609.2137451171875,exact,5,394.0–634.7 mm yr-1,20,9,13,14
US-UiA,40.0646,-88.1961,690.77618408203125,exact,6,634.7–968.6 mm yr-1,22,9,13,15
US-UiB,40.0628,-88.1984,690.77618408203125,exact,6,634.7–968.6 mm yr-1,22,9,13,15
US-UiC,40.0628,-88.1961,690.77618408203125,exact,6,634.7–968.6 mm yr-1,22,9,13,15
US-UiD,40.0646,-88.1985,690.77618408203125,exact,6,634.7–968.6 mm yr-1,22,9,13,15
US-UiE,40.0629,-88.2033,690.77618408203125,exact,6,634.7–968.6 mm yr-1,22,9,13,15
US-UiF,40.0665,-88.2015,690.77618408203125,exact,6,634.7–968.6 mm yr-1,22,9,13,15
US-UiG,40.0629,-88.2009,690.77618408203125,exact,6,634.7–968.6 mm yr-1,22,9,13,15
US-UMd,45.5625,-84.6975,469.7247924804687,exact,5,394.0–634.7 mm yr-1,18,8,11,12
US-UTB,40.7848,-113.8299,140.49136352539062,exact,2,5.0–143.4 mm yr-1,6,3,4,5
US-UTD,38.1038,-109.5952,241.1700439453125,exact,3,143.4–263.9 mm yr-1,10,5,7,7
US-UTE,37.7353,-111.5708,262.1649475097656,exact,3,143.4–263.9 mm yr-1,11,5,7,8
US-UTJ,37.2818,-109.5348,211.4911193847656,exact,3,143.4–263.9 mm yr-1,9,4,6,6
US-UTL,40.1877,-109.6579,190.76414489746097,exact,3,143.4–263.9 mm yr-1,8,4,5,6
US-UTM,38.5879,-109.5775,218.27816772460935,exact,3,143.4–263.9 mm yr-1,9,4,6,7
US-UTP,41.0604,-112.1013,341.258544921875,exact,4,263.9–394.0 mm yr-1,14,6,9,10
US-UTV,40.1266,-109.9546,190.76414489746097,exact,3,143.4–263.9 mm yr-1,8,4,5,6
US-UTW,39.4453,-110.7288,225.4231719970703,exact,3,143.4–263.9 mm yr-1,10,5,6,7
US-Var,38.4133,-120.9508,417.7388000488281,exact,5,394.0–634.7 mm yr-1,17,7,10,11
US-Vcm,35.8885,-106.5322,390.8061828613281,exact,4,263.9–394.0 mm yr-1,16,7,10,11
US-Vcp,35.8641,-106.5965,390.8061828613281,exact,4,263.9–394.0 mm yr-1,16,7,10,11
US-VT1,40.4064,-87.5214,694.582275390625,exact,6,634.7–968.6 mm yr-1,22,9,13,15
US-VT2,40.4018,-87.5213,694.582275390625,exact,6,634.7–968.6 mm yr-1,22,9,13,15
US-WCr,45.8058,-90.0795,509.120361328125,exact,5,394.0–634.7 mm yr-1,19,8,12,13
US-Whs,31.7438,-110.0522,327.7666015625,exact,4,263.9–394.0 mm yr-1,14,6,9,9
US-Wjs,34.4258,-105.8617,332.2318115234375,exact,4,263.9–394.0 mm yr-1,14,6,9,10
US-Wkg,31.7365,-109.9419,307.04742431640625,exact,4,263.9–394.0 mm yr-1,13,6,8,9
US-WPT,41.4646,-82.9962,609.33782958984375,exact,5,394.0–634.7 mm yr-1,20,9,13,14
US-WT1,34.3674,-101.8154,472.8365478515625,exact,5,394.0–634.7 mm yr-1,18,8,11,12
US-xAB,45.7624,-122.3303,529.02276611328125,exact,5,394.0–634.7 mm yr-1,19,8,12,13
US-xAE,35.4106,-99.0588,625.182373046875,exact,5,394.0–634.7 mm yr-1,21,9,13,14
US-xBA,71.2824,-156.6194,79.7755126953125,exact,2,5.0–143.4 mm yr-1,4,3,3,3
US-xBL,39.0603,-78.0716,655.35467529296875,exact,6,634.7–968.6 mm yr-1,21,9,13,14
US-xBN,65.154,-147.5026,223.5985870361328,exact,3,143.4–263.9 mm yr-1,9,5,6,7
US-xBR,44.0639,-71.2873,480.1797790527344,exact,5,394.0–634.7 mm yr-1,18,8,11,12
US-xCL,33.4012,-97.57,711.2342529296875,exact,6,634.7–968.6 mm yr-1,22,9,13,15
US-xCP,40.8155,-104.7456,383.6994934082031,exact,4,263.9–394.0 mm yr-1,16,7,10,11
US-xDC,47.1617,-99.1066,420.4280090332031,exact,5,394.0–634.7 mm yr-1,17,7,10,12
US-xDJ,63.881100000000004,-145.7514,217.99693298339844,exact,3,143.4–263.9 mm yr-1,9,4,6,7
US-xDL,32.5417,-87.8039,854.5196533203125,exact,6,634.7–968.6 mm yr-1,24,10,15,16
US-xDS,28.125,-81.4362,946.7945556640624,exact,6,634.7–968.6 mm yr-1,25,11,16,17
US-xGR,35.689,-83.5019,782.29083251953125,exact,6,634.7–968.6 mm yr-1,23,10,14,16
US-xHE,63.8757,-149.2133,207.4659881591797,exact,3,143.4–263.9 mm yr-1,9,4,6,6
US-xJE,31.1948,-84.4686,904.17755126953125,exact,6,634.7–968.6 mm yr-1,25,10,15,17
US-xJR,32.5907,-106.8425,259.2829284667969,exact,3,143.4–263.9 mm yr-1,11,5,7,8
US-xKZ,39.1008,-96.5631,640.5924072265625,exact,6,634.7–968.6 mm yr-1,21,9,13,14
US-xLE,31.8539,-88.1612,951.17120361328125,exact,6,634.7–968.6 mm yr-1,25,11,16,17
US-xMB,38.2483,-109.3883,320.2561340332031,exact,4,263.9–394.0 mm yr-1,13,6,8,9
US-xML,37.3783,-80.5248,714.16510009765625,exact,6,634.7–968.6 mm yr-1,22,9,14,15
US-xNG,46.7697,-100.9154,382.8362731933594,exact,4,263.9–394.0 mm yr-1,16,7,10,11
US-xNQ,40.1776,-112.4524,364.9841003417969,exact,4,263.9–394.0 mm yr-1,15,7,9,10
US-xNW,40.0543,-105.5824,339.7502136230469,exact,4,263.9–394.0 mm yr-1,14,6,9,10
US-xPU,19.5531,-155.3173,1147.2535400390625,exact,7,>968.6 mm yr-1,30,12,18,20
US-xRM,40.2759,-105.5459,339.7502136230469,exact,4,263.9–394.0 mm yr-1,14,6,9,10
US-xRN,35.9641,-84.2826,758.343017578125,exact,6,634.7–968.6 mm yr-1,23,10,14,15
US-xSB,29.6893,-81.9934,954.4866943359376,exact,6,634.7–968.6 mm yr-1,25,11,16,17
US-xSC,38.8929,-78.1395,668.08013916015625,exact,6,634.7–968.6 mm yr-1,21,9,13,14
US-xSE,38.8901,-76.56,648.66705322265625,exact,6,634.7–968.6 mm yr-1,21,9,13,14
US-xSJ,37.1088,-119.7323,383.7726440429687,exact,4,263.9–394.0 mm yr-1,16,7,10,11
US-xSL,40.4619,-103.0293,389.3233642578125,exact,4,263.9–394.0 mm yr-1,16,7,10,11
US-xSP,37.0334,-119.26220000000001,358.7480163574219,exact,4,263.9–394.0 mm yr-1,15,7,9,10
US-xSR,31.9107,-110.8355,363.3477478027344,exact,4,263.9–394.0 mm yr-1,15,7,9,10
US-xST,45.5089,-89.5864,495.2511596679687,exact,5,394.0–634.7 mm yr-1,19,8,12,13
US-xTE,37.0058,-119.006,358.7480163574219,exact,4,263.9–394.0 mm yr-1,15,7,9,10
US-xTL,68.6611,-149.3705,132.50074768066406,exact,2,5.0–143.4 mm yr-1,6,3,4,4
US-xTR,45.4937,-89.5857,539.5924072265625,exact,5,394.0–634.7 mm yr-1,19,8,12,13
US-xUK,39.0404,-95.1921,694.3011474609375,exact,6,634.7–968.6 mm yr-1,22,9,13,15
US-xUN,46.2339,-89.5373,489.5101013183594,exact,5,394.0–634.7 mm yr-1,18,8,11,13
US-xWD,47.1282,-99.2414,420.4280090332031,exact,5,394.0–634.7 mm yr-1,17,7,10,12
US-xWR,45.8205,-121.9519,477.50738525390625,exact,5,394.0–634.7 mm yr-1,18,8,11,12
US-xYE,44.9535,-110.5391,364.95599365234375,exact,4,263.9–394.0 mm yr-1,15,7,9,10
US-YK1,61.2723,-163.2228,251.0545196533203,exact,3,143.4–263.9 mm yr-1,11,5,7,7
US-YK2,61.2548,-163.259,251.0545196533203,exact,3,143.4–263.9 mm yr-1,11,5,7,7
US-ZF2,40.7939,-87.5355,674.98577880859375,exact,6,634.7–968.6 mm yr-1,21,9,13,15
ZA-Uby,-27.3952,32.5889,726.78765869140625,exact,6,634.7–968.6 mm yr-1,22,9,14,15
ZA-Spk,-28.70408,29.52614,675.8956298828125,exact,6,634.7–968.6 mm yr-1,21,9,13,15
ZA-Jks,-33.99029,18.95543,478.9760437011719,exact,5,394.0–634.7 mm yr-1,18,8,11,12
ZA-BfS,-28.8906,24.86112,394.8325500488281,exact,5,394.0–634.7 mm yr-1,16,7,10,11
ZA-BfK,-28.856483,24.83985,394.8325500488281,exact,5,394.0–634.7 mm yr-1,16,7,10,11
KR-WdE,34.35956,126.67779,719.98309326171875,exact,6,634.7–968.6 mm yr-1,22,9,14,15
KR-UAO,36.41682,128.79904,681.0443115234375,exact,6,634.7–968.6 mm yr-1,21,9,13,15
KR-TwC,37.30493,127.31743,636.5023193359375,exact,6,634.7–968.6 mm yr-1,21,9,13,14
KR-TwB,37.30406,127.31395,636.5023193359375,exact,6,634.7–968.6 mm yr-1,21,9,13,14
KR-SmM,37.93894,126.95471,631.48150634765625,exact,5,394.0–634.7 mm yr-1,21,9,13,14
KR-ScC,37.22141,129.29863,624.96356201171875,exact,5,394.0–634.7 mm yr-1,21,9,13,14
KR-PcD,37.48184,128.51604,659.03057861328125,exact,6,634.7–968.6 mm yr-1,21,9,13,14
KR-Nj2,35.0269,126.8219,750.03875732421875,exact,6,634.7–968.6 mm yr-1,23,9,14,15
KR-Nj1,35.02753,126.82093,750.03875732421875,exact,6,634.7–968.6 mm yr-1,23,9,14,15
KR-Kw2,37.74869,127.14888,634.80120849609375,exact,6,634.7–968.6 mm yr-1,21,9,13,14
KR-Kw1,37.74843,127.16261,634.80120849609375,exact,6,634.7–968.6 mm yr-1,21,9,13,14
KR-JjM,33.31798,126.56772,754.529296875,exact,6,634.7–968.6 mm yr-1,23,9,14,15
KR-Hnm,34.5538,126.56992,762.99853515625,exact,6,634.7–968.6 mm yr-1,23,10,14,15
KR-HcM,37.61938,127.84571,649.75177001953125,exact,6,634.7–968.6 mm yr-1,21,9,13,14
KR-HPK,34.47722,126.48105,708.4224853515625,exact,6,634.7–968.6 mm yr-1,22,9,13,15
KR-GmS,35.75089,126.81378,742.55450439453125,exact,6,634.7–968.6 mm yr-1,22,9,14,15
KR-GmR,35.74862,126.86432,742.55450439453125,exact,6,634.7–968.6 mm yr-1,22,9,14,15
KR-GmP,35.74502,126.85222,742.55450439453125,exact,6,634.7–968.6 mm yr-1,22,9,14,15
KR-CmF,37.1599,127.65365,635.5013427734375,exact,6,634.7–968.6 mm yr-1,21,9,13,14
KR-CRK,38.2013,127.2497,619.86175537109375,exact,5,394.0–634.7 mm yr-1,21,9,13,14
KR-AdC,36.50565,126.35909,661.6622314453125,exact,6,634.7–968.6 mm yr-1,21,9,13,14
TH-Mae,18.42264,99.72025,925.5718994140624,exact,6,634.7–968.6 mm yr-1,25,10,15,17
TH-Kog,18.81267,98.90225,974.27520751953125,exact,7,>968.6 mm yr-1,26,11,16,17
RU-Tur,64.208885,100.463554,195.53842163085935,exact,3,143.4–263.9 mm yr-1,8,4,6,6
RU-SkP,62.25471,129.61855,208.35118103027344,exact,3,143.4–263.9 mm yr-1,9,4,6,6
RU-Sk2,62.241356,129.65047,208.35118103027344,exact,3,143.4–263.9 mm yr-1,9,4,6,6
RU-NeF,62.315617,129.49997,217.5732879638672,exact,3,143.4–263.9 mm yr-1,9,4,6,7
RU-NeC,62.314842,129.50008,208.35118103027344,exact,3,143.4–263.9 mm yr-1,9,4,6,6
RU-NeB,62.325935,129.48734,217.5732879638672,exact,3,143.4–263.9 mm yr-1,9,4,6,7
RU-Ege,60.015514,133.824,239.0928192138672,exact,3,143.4–263.9 mm yr-1,10,5,7,7
MY-LHP,4.201007,114.03908,1434.0928955078125,exact,7,>968.6 mm yr-1,30,12,18,20
MN-Udg,48.25649,106.85116,313.9574279785156,exact,4,263.9–394.0 mm yr-1,13,6,8,9
MN-Nkh,47.693592,107.48934,309.70111083984375,exact,4,263.9–394.0 mm yr-1,13,6,8,9
MN-Kbu,47.21397,108.737335,281.5339660644531,exact,4,263.9–394.0 mm yr-1,12,5,8,8
MN-Hst,47.59293,105.85497,289.2492980957031,exact,4,263.9–394.0 mm yr-1,12,6,8,8
KH-Kmp,12.744579,105.47857,1090.110107421875,exact,7,>968.6 mm yr-1,30,12,18,20
JP-Ynf,26.751,128.21266,849.5781860351564,exact,6,634.7–968.6 mm yr-1,24,10,15,16
JP-Yms,34.79028,135.84094,718.2017822265625,exact,6,634.7–968.6 mm yr-1,22,9,14,15
JP-Toc,42.70973,141.5659,518.25640869140625,exact,5,394.0–634.7 mm yr-1,19,8,12,13
JP-Tmk,42.739307,141.51483,518.25640869140625,exact,5,394.0–634.7 mm yr-1,19,8,12,13
JP-Tmd,42.735912,141.52315,518.25640869140625,exact,5,394.0–634.7 mm yr-1,19,8,12,13
JP-Tkb,36.173378,140.17664,694.83892822265625,exact,6,634.7–968.6 mm yr-1,22,9,13,15
JP-Tgf,36.11353,140.09488,694.83892822265625,exact,6,634.7–968.6 mm yr-1,22,9,13,15
JP-Tef,45.05581,142.10712,393.8785705566406,exact,4,263.9–394.0 mm yr-1,16,7,10,11
JP-Tak,36.146168,137.42311,673.09295654296875,exact,6,634.7–968.6 mm yr-1,21,9,13,15
JP-Ta2,36.140038,137.37071,673.09295654296875,exact,6,634.7–968.6 mm yr-1,21,9,13,15
JP-Srk,40.565483,140.12779,630.55035400390625,exact,5,394.0–634.7 mm yr-1,21,9,13,14
JP-Spp,42.986843,141.38533,480.1280517578125,exact,5,394.0–634.7 mm yr-1,18,8,11,12
JP-Shn,35.865753,137.93256,705.64398193359375,exact,6,634.7–968.6 mm yr-1,22,9,13,15
JP-Sb2,45.10339,141.6808,446.4626159667969,exact,5,394.0–634.7 mm yr-1,18,8,11,12
JP-Sb1,45.104702,141.68797,446.4626159667969,exact,5,394.0–634.7 mm yr-1,18,8,11,12
JP-SMF,35.261528,137.07875,784.81414794921875,exact,6,634.7–968.6 mm yr-1,23,10,14,16
JP-Om2,34.542454,135.50822,718.2017822265625,exact,6,634.7–968.6 mm yr-1,22,9,14,15
JP-Nuf,35.152416,136.9719,733.1181030273436,exact,6,634.7–968.6 mm yr-1,22,9,14,15
JP-NsM,36.91604,139.936,699.3720703125,exact,6,634.7–968.6 mm yr-1,22,9,13,15
JP-NsC,36.915054,139.93684,699.3720703125,exact,6,634.7–968.6 mm yr-1,22,9,13,15
JP-Nkm,35.808064,137.83388,705.64398193359375,exact,6,634.7–968.6 mm yr-1,22,9,13,15
JP-Mse,36.05393,140.02693,694.83892822265625,exact,6,634.7–968.6 mm yr-1,22,9,13,15
JP-MMF,44.321884,142.26152,454.0787353515625,exact,5,394.0–634.7 mm yr-1,18,8,11,12
JP-MBF,44.38406,142.31862,454.0787353515625,exact,5,394.0–634.7 mm yr-1,18,8,11,12
JP-Kzw,36.406788,138.57257,704.542724609375,exact,6,634.7–968.6 mm yr-1,22,9,13,15
JP-Khw,33.13658,130.70834,834.63824462890625,exact,6,634.7–968.6 mm yr-1,24,10,15,16
JP-KaP,36.08313,140.24033,694.83892822265625,exact,6,634.7–968.6 mm yr-1,22,9,13,15
JP-Hc3,34.539673,133.91173,791.04827880859375,exact,6,634.7–968.6 mm yr-1,23,10,14,16
JP-Hc2,34.537518,133.92755,791.04827880859375,exact,6,634.7–968.6 mm yr-1,23,10,14,16
JP-Fmt,35.638744,139.37975,763.53741455078125,exact,6,634.7–968.6 mm yr-1,23,10,14,15
JP-Fjy,35.45454,138.76225,798.216064453125,exact,6,634.7–968.6 mm yr-1,23,10,14,16
JP-Fhk,35.443554,138.7647,798.216064453125,exact,6,634.7–968.6 mm yr-1,23,10,14,16
JP-BBY,43.322998,141.81065,517.8968505859375,exact,5,394.0–634.7 mm yr-1,19,8,12,13
JP-Api,40.001358,140.93658,630.44207763671875,exact,5,394.0–634.7 mm yr-1,21,9,13,14
ID-Pag,-2.3239167,113.90439,1390.824462890625,exact,7,>968.6 mm yr-1,30,12,18,20
ID-PaD,-2.3460708,114.03641,1370.5328369140625,exact,7,>968.6 mm yr-1,30,12,18,20
ID-PaB,-2.340796,114.0379,1370.5328369140625,exact,7,>968.6 mm yr-1,30,12,18,20
CN-Lsh,45.27984,127.57821,490.9331970214844,exact,5,394.0–634.7 mm yr-1,18,8,11,13
CN-HaM,37.607433,101.332,329.3330993652344,exact,4,263.9–394.0 mm yr-1,14,6,9,10
UK-AMo,55.792545,-3.2436917,355.31463623046875,exact,4,263.9–394.0 mm yr-1,15,7,9,10
SE-Svb,64.25611,19.7745,282.06982421875,exact,4,263.9–394.0 mm yr-1,12,5,8,8
SE-Sto,68.35594,19.045208,178.38104248046875,exact,3,143.4–263.9 mm yr-1,8,4,5,6
SE-Nor,60.0865,17.479504,333.17401123046875,exact,4,263.9–394.0 mm yr-1,14,6,9,10
SE-Htm,56.09763,13.41897,459.05328369140625,exact,5,394.0–634.7 mm yr-1,18,8,11,12
SE-Deg,64.18203,19.55654,282.06982421875,exact,4,263.9–394.0 mm yr-1,12,5,8,8
NO-Hur,60.37163,11.07949,378.6341247558594,exact,4,263.9–394.0 mm yr-1,15,7,10,11
NL-Loo,52.166447,5.74355,415.8315124511719,exact,5,394.0–634.7 mm yr-1,17,7,10,11
IT-TrF,45.82376,7.56089,477.9774475097656,exact,5,394.0–634.7 mm yr-1,18,8,11,12
IT-Tor,45.84444,7.578055,477.9774475097656,exact,5,394.0–634.7 mm yr-1,18,8,11,12
IT-Ren,46.58686,11.43369,513.18865966796875,exact,5,394.0–634.7 mm yr-1,19,8,12,13
IT-Noe,40.606174,8.151694,452.94146728515625,exact,5,394.0–634.7 mm yr-1,18,8,11,12
IT-Niv,45.49091,7.13943,493.3429870605469,exact,5,394.0–634.7 mm yr-1,19,8,11,13
IT-MBo,46.01468,11.045831,556.2291259765625,exact,5,394.0–634.7 mm yr-1,20,8,12,13
IT-Lsn,45.740482,12.750297,637.47314453125,exact,6,634.7–968.6 mm yr-1,21,9,13,14
IT-Cp2,41.704266,12.357293,459.5895385742187,exact,5,394.0–634.7 mm yr-1,18,8,11,12
IT-BFt,45.197754,10.741966,589.46160888671875,exact,5,394.0–634.7 mm yr-1,20,9,12,14
IT-BCi,40.52375,14.957444,497.2337646484375,exact,5,394.0–634.7 mm yr-1,19,8,12,13
IE-Cra,53.32308,-7.64177,435.5339660644531,exact,5,394.0–634.7 mm yr-1,17,7,11,12
GL-ZaH,74.4733,-20.550869,10.301523208618164,exact,2,5.0–143.4 mm yr-1,2,2,2,2
GL-ZaF,74.48152,-20.555773,10.301523208618164,exact,2,5.0–143.4 mm yr-1,2,2,2,2
GL-NuF,64.130936,-51.386066,134.46607971191406,exact,2,5.0–143.4 mm yr-1,6,3,4,4
GL-Dsk,69.25349,-53.51413,93.02728271484376,exact,2,5.0–143.4 mm yr-1,5,3,3,4
GF-Guy,5.2787,-52.9248,1394.0189208984375,exact,7,>968.6 mm yr-1,30,12,18,20
FR-Tou,43.572857,1.37474,555.36285400390625,exact,5,394.0–634.7 mm yr-1,20,8,12,13
FR-Pue,43.7413,3.5957,545.8695068359375,exact,5,394.0–634.7 mm yr-1,20,8,12,13
FR-Mej,48.1184,-1.79635,494.3447570800781,exact,5,394.0–634.7 mm yr-1,19,8,12,13
FR-Lus,46.414246,0.1206518,543.27838134765625,exact,5,394.0–634.7 mm yr-1,19,8,12,13
FR-Lqu,45.6444,2.7349,561.31829833984375,exact,5,394.0–634.7 mm yr-1,20,8,12,13
FR-Lam,43.496437,1.237878,609.148193359375,exact,5,394.0–634.7 mm yr-1,20,9,13,14
FR-LGt,47.322918,2.284102,494.3428039550781,exact,5,394.0–634.7 mm yr-1,19,8,12,13
FR-Hes,48.6741,7.06465,500.23486328125,exact,5,394.0–634.7 mm yr-1,19,8,12,13
FR-Gri,48.84422,1.95191,452.6058349609375,exact,5,394.0–634.7 mm yr-1,18,8,11,12
FR-Fon,48.476357,2.780096,489.0007019042969,exact,5,394.0–634.7 mm yr-1,18,8,11,13
FR-FBn,43.24079,5.67865,474.1663818359375,exact,5,394.0–634.7 mm yr-1,18,8,11,12
FR-EM2,49.87211,3.02065,476.78863525390625,exact,5,394.0–634.7 mm yr-1,18,8,11,12
FR-CLt,45.0414,6.41053,537.47601318359375,exact,5,394.0–634.7 mm yr-1,19,8,12,13
FR-Bil,44.493652,-0.956092,637.3214111328125,exact,6,634.7–968.6 mm yr-1,21,9,13,14
FR-Aur,43.54965,1.106103,555.36285400390625,exact,5,394.0–634.7 mm yr-1,20,8,12,13
FI-Var,67.7549,29.61,217.40773010253903,exact,3,143.4–263.9 mm yr-1,9,4,6,7
FI-Sod,67.36239,26.63859,257.22845458984375,exact,3,143.4–263.9 mm yr-1,11,5,7,8
FI-Sii,61.83265,24.19285,298.6543273925781,exact,4,263.9–394.0 mm yr-1,13,6,8,9
FI-Let,60.64183,23.95952,326.41558837890625,exact,4,263.9–394.0 mm yr-1,14,6,9,9
FI-Ken,67.98721,24.24301,237.54763793945312,exact,3,143.4–263.9 mm yr-1,10,5,7,7
FI-Hyy,61.847410000000004,24.29477,298.6543273925781,exact,4,263.9–394.0 mm yr-1,13,6,8,9
FI-Ant,63.16347,27.234991,300.1099853515625,exact,4,263.9–394.0 mm yr-1,13,6,8,9
ES-LMa,39.94033,-5.77465,360.2332458496094,exact,4,263.9–394.0 mm yr-1,15,7,9,10
DK-Vng,56.037476,9.160709,386.9825439453125,exact,4,263.9–394.0 mm yr-1,16,7,10,11
DK-Sor,55.48587,11.644645,372.0376892089844,exact,4,263.9–394.0 mm yr-1,15,7,10,11
DK-Skj,55.91273,8.40481,381.8221435546875,exact,4,263.9–394.0 mm yr-1,16,7,10,11
DK-RCW,55.680683,12.101398,389.3805541992187,exact,4,263.9–394.0 mm yr-1,16,7,10,11
DK-Gds,56.0737,9.3341,386.9825439453125,exact,4,263.9–394.0 mm yr-1,16,7,10,11
DE-Tha,50.962597,13.565333,450.4152526855469,exact,5,394.0–634.7 mm yr-1,18,8,11,12
DE-RuW,50.50493,6.3309627,445.409912109375,exact,5,394.0–634.7 mm yr-1,17,8,11,12
DE-RuS,50.865906,6.4471445,445.409912109375,exact,5,394.0–634.7 mm yr-1,17,8,11,12
DE-RuR,50.621914,6.304126,445.409912109375,exact,5,394.0–634.7 mm yr-1,17,8,11,12
DE-Msr,47.80918,11.456168,546.5693359375,exact,5,394.0–634.7 mm yr-1,20,8,12,13
DE-Kli,50.893044,13.5223,450.4152526855469,exact,5,394.0–634.7 mm yr-1,18,8,11,12
DE-Hzd,50.96381,13.48978,445.2551879882813,exact,5,394.0–634.7 mm yr-1,17,8,11,12
DE-HoH,52.08656,11.22235,429.09515380859375,exact,5,394.0–634.7 mm yr-1,17,7,11,12
DE-Har,47.93391,7.59814,523.31854248046875,exact,5,394.0–634.7 mm yr-1,19,8,12,13
DE-Hai,51.079212,10.452168,465.752197265625,exact,5,394.0–634.7 mm yr-1,18,8,11,12
DE-Gwg,47.570835,11.032604,546.5693359375,exact,5,394.0–634.7 mm yr-1,20,8,12,13
DE-GsB,52.029648,11.10478,429.09515380859375,exact,5,394.0–634.7 mm yr-1,17,7,11,12
DE-Gri,50.950005,13.512533,450.4152526855469,exact,5,394.0–634.7 mm yr-1,18,8,11,12
DE-Geb,51.09973,10.91463,450.3780517578125,exact,5,394.0–634.7 mm yr-1,18,8,11,12
DE-Fen,47.832905,11.060701,546.5693359375,exact,5,394.0–634.7 mm yr-1,20,8,12,13
DE-Brs,52.29663,10.44871,443.9259338378906,exact,5,394.0–634.7 mm yr-1,17,8,11,12
DE-Amv,52.1757,6.95537,406.2774658203125,exact,5,394.0–634.7 mm yr-1,16,7,10,11
CZ-wet,49.02465,14.77035,502.30322265625,exact,5,394.0–634.7 mm yr-1,19,8,12,13
CZ-Lnz,48.68155,16.946331,461.2334899902344,exact,5,394.0–634.7 mm yr-1,18,8,11,12
CZ-BK1,49.502075,18.536882,519.78582763671875,exact,5,394.0–634.7 mm yr-1,19,8,12,13
CH-Dav,46.81533,9.85591,459.2020568847656,exact,5,394.0–634.7 mm yr-1,18,8,11,12
CD-Ygb,0.814444,24.502472,1353.129150390625,exact,7,>968.6 mm yr-1,30,12,18,20
BE-Vie,50.304962,5.998099,488.7662048339844,exact,5,394.0–634.7 mm yr-1,18,8,11,13
BE-Maa,50.97987,5.631851,450.1946411132813,exact,5,394.0–634.7 mm yr-1,18,8,11,12
BE-Lon,50.55162,4.746234,470.2182312011719,exact,5,394.0–634.7 mm yr-1,18,8,11,12
BE-Dor,50.311874,4.968113,494.8986511230469,exact,5,394.0–634.7 mm yr-1,19,8,12,13
BE-Bra,51.30761,4.51984,431.9701843261719,exact,5,394.0–634.7 mm yr-1,17,7,11,12
VU-Coc,-15.444423,167.19131,1438.723388671875,exact,7,>968.6 mm yr-1,30,12,18,20
ML-Kem,15.2875,-1.543056,343.92816162109375,exact,4,263.9–394.0 mm yr-1,14,6,9,10
KE-Mkt,-3.425859,38.140663,708.1529541015625,exact,6,634.7–968.6 mm yr-1,22,9,13,15
KE-Kpt,-1.6141866,37.13311,640.82513427734375,exact,6,634.7–968.6 mm yr-1,21,9,13,14
KE-Chk,-3.6663,38.350185,706.16925048828125,exact,6,634.7–968.6 mm yr-1,22,9,13,15
KE-Aq2,-1.566199,37.100166,640.82513427734375,exact,6,634.7–968.6 mm yr-1,21,9,13,14
KE-Aq1,-1.57781,37.067047,640.82513427734375,exact,6,634.7–968.6 mm yr-1,21,9,13,14
IT-SR2,43.73202,10.29091,552.29400634765625,exact,5,394.0–634.7 mm yr-1,20,8,12,13
ID-JOP,-1.69306,103.39139,1383.6717529296875,exact,7,>968.6 mm yr-1,30,12,18,20
CR-AqC,9.938369,-83.7289,1499.8590087890625,exact,7,>968.6 mm yr-1,30,12,18,20
CN-SnB,31.6905,121.6563,728.5726318359375,exact,6,634.7–968.6 mm yr-1,22,9,14,15
CN-Sb2,42.39117,117.37017,381.1966247558594,exact,4,263.9–394.0 mm yr-1,16,7,10,11
CN-Sb1,42.40907,117.31461,381.1966247558594,exact,4,263.9–394.0 mm yr-1,16,7,10,11
BW-Nxr,-19.548056,23.179167,432.6473388671875,exact,5,394.0–634.7 mm yr-1,17,7,11,12
BW-Gum,-18.964722,22.37111,452.5456237792969,exact,5,394.0–634.7 mm yr-1,18,8,11,12
BJ-Nhu,9.74,1.6,785.41522216796875,exact,6,634.7–968.6 mm yr-1,23,10,14,16
BJ-Db1,6.607338,2.543043,928.45550537109375,exact,6,634.7–968.6 mm yr-1,25,10,15,17
BJ-Bfg,9.791,1.718,785.41522216796875,exact,6,634.7–968.6 mm yr-1,23,10,14,16
ZM-Mon,-15.4391,23.2525,695.17755126953125,exact,6,634.7–968.6 mm yr-1,22,9,13,15
UK-HpF,52.24809,-0.0498267,401.0645446777344,exact,5,394.0–634.7 mm yr-1,16,7,10,11
UK-HgF,52.552177,0.515057,399.6946105957031,exact,5,394.0–634.7 mm yr-1,16,7,10,11
UK-Gwr,54.85464,-5.988278,400.5992431640625,exact,5,394.0–634.7 mm yr-1,16,7,10,11
UK-Gnn,54.96185,-6.760763,405.3941955566406,exact,5,394.0–634.7 mm yr-1,16,7,10,11
UK-GaB,55.10994,-6.529928,321.5661315917969,exact,4,263.9–394.0 mm yr-1,13,6,9,9
UK-Cvn,52.43339,0.162177,393.1223449707031,exact,4,263.9–394.0 mm yr-1,16,7,10,11
UK-CCr,52.2542,-3.93357,444.6540222167969,exact,5,394.0–634.7 mm yr-1,17,8,11,12
UK-BnB,54.82326,-6.66984,405.3941955566406,exact,5,394.0–634.7 mm yr-1,16,7,10,11
UK-Ags,53.3097,-4.30044,461.0323486328125,exact,5,394.0–634.7 mm yr-1,18,8,11,12
SN-Nkr,14.49581,-16.45357,459.3300476074219,exact,5,394.0–634.7 mm yr-1,18,8,11,12
SN-Dhr,15.40256,-15.43214,386.5001831054687,exact,4,263.9–394.0 mm yr-1,16,7,10,11
SJ-Adv,78.186,15.923,81.58317565917969,exact,2,5.0–143.4 mm yr-1,4,3,3,3
SE-Trb,64.180916,19.837284,282.06982421875,exact,4,263.9–394.0 mm yr-1,12,5,8,8
SE-St1,68.35415,19.050333,178.38104248046875,exact,3,143.4–263.9 mm yr-1,8,4,5,6
SE-Srj,64.17498,19.56381,282.06982421875,exact,4,263.9–394.0 mm yr-1,12,5,8,8
SE-Ros,64.16522,19.79074,282.06982421875,exact,4,263.9–394.0 mm yr-1,12,5,8,8
SE-Hmr,64.15955,19.551497,282.06982421875,exact,4,263.9–394.0 mm yr-1,12,5,8,8
SE-HfM,64.15955,19.551497,282.06982421875,exact,4,263.9–394.0 mm yr-1,12,5,8,8
SD-Dem,13.2829,30.4783,319.0411071777344,exact,4,263.9–394.0 mm yr-1,13,6,8,9
RU-Ha1,54.72517,90.00215,363.1251525878906,exact,4,263.9–394.0 mm yr-1,15,7,9,10
RU-Fyo,56.46153,32.922085,394.759765625,exact,5,394.0–634.7 mm yr-1,16,7,10,11
RU-Fy4,56.4727,33.0413,407.5298767089844,exact,5,394.0–634.7 mm yr-1,16,7,10,11
RU-Fy3,56.4435,33.0478,407.5298767089844,exact,5,394.0–634.7 mm yr-1,16,7,10,11
RU-Fy2,56.4476,32.90188,394.759765625,exact,5,394.0–634.7 mm yr-1,16,7,10,11
RU-Che,68.61304,161.34143,117.12652587890624,exact,2,5.0–143.4 mm yr-1,5,3,4,4
RU-Ch2,68.61689,161.35089,117.12652587890624,exact,2,5.0–143.4 mm yr-1,5,3,4,4
PA-SPs,9.31378,-79.63143,1358.2677001953125,exact,7,>968.6 mm yr-1,30,12,18,20
PA-SPn,9.31814,-79.6346,1358.2677001953125,exact,7,>968.6 mm yr-1,30,12,18,20
NO-Ikr,69.34,25.3,207.75599670410156,exact,3,143.4–263.9 mm yr-1,9,4,6,6
NO-Fns,60.59384,7.5271025,214.26564025878903,exact,3,143.4–263.9 mm yr-1,9,4,6,6
NO-And,69.1422,16.01975,315.945068359375,exact,4,263.9–394.0 mm yr-1,13,6,8,9
NL-Vkp,51.980934,5.618825,415.8201293945313,exact,5,394.0–634.7 mm yr-1,17,7,10,11
NL-Hrw,51.972466,5.641228,415.8201293945313,exact,5,394.0–634.7 mm yr-1,17,7,10,11
IT-SRo,43.72786,10.284445,552.29400634765625,exact,5,394.0–634.7 mm yr-1,20,8,12,13
IT-PT1,45.20087,9.061039,583.0517578125,exact,5,394.0–634.7 mm yr-1,20,9,12,14
IT-NiG,45.51919,7.171434,454.75146484375,exact,5,394.0–634.7 mm yr-1,18,8,11,12
IT-MtM,46.687134,10.579597,410.4921875,exact,5,394.0–634.7 mm yr-1,16,7,10,11
IT-Lav,45.9562,11.28132,577.6485595703125,exact,5,394.0–634.7 mm yr-1,20,9,12,14
IT-CA3,42.38,12.0222,568.42633056640625,exact,5,394.0–634.7 mm yr-1,20,8,12,14
IT-CA2,42.37722,12.026039,568.42633056640625,exact,5,394.0–634.7 mm yr-1,20,8,12,14
IT-CA1,42.38041,12.026561,568.42633056640625,exact,5,394.0–634.7 mm yr-1,20,8,12,14
IT-Bsn,45.11924,7.160429,493.3429870605469,exact,5,394.0–634.7 mm yr-1,19,8,11,13
IT-BsB,45.11823,7.161995,493.3429870605469,exact,5,394.0–634.7 mm yr-1,19,8,11,13
IT-Arz,45.61902,10.00228,571.23089599609375,exact,5,394.0–634.7 mm yr-1,20,8,12,14
IL-Yat,31.345045,35.051987,203.10400390625,exact,3,143.4–263.9 mm yr-1,9,4,6,6
IL-RmH,32.5555,34.947285,440.3868103027344,exact,5,394.0–634.7 mm yr-1,17,8,11,12
IE-Gwr,52.6365,-7.011306,422.6601257324219,exact,5,394.0–634.7 mm yr-1,17,7,11,12
IE-CaN,52.85879,-6.918136,432.9938659667969,exact,5,394.0–634.7 mm yr-1,17,7,11,12
IE-CaC,52.85879,-6.918136,432.9938659667969,exact,5,394.0–634.7 mm yr-1,17,7,11,12
GH-Ank,5.268543,-2.694206,1067.3275146484375,exact,7,>968.6 mm yr-1,30,12,18,20
FR-Nzn,48.005814,-2.81721,519.51300048828125,exact,5,394.0–634.7 mm yr-1,19,8,12,13
FR-Mau,43.385,1.29306,609.148193359375,exact,5,394.0–634.7 mm yr-1,20,9,13,14
FR-LBr,44.71711,-0.7693,605.43359375,exact,5,394.0–634.7 mm yr-1,20,9,13,14
FI-Sar,63.15143,27.199064,300.1099853515625,exact,4,263.9–394.0 mm yr-1,13,6,8,9
FI-Ruk,64.68398,25.106318,291.2874450683594,exact,4,263.9–394.0 mm yr-1,12,6,8,9
FI-Rk2,61.182884,25.262684,319.9693298339844,exact,4,263.9–394.0 mm yr-1,13,6,8,9
FI-Qvd,60.295242,22.391607,291.5733642578125,exact,4,263.9–394.0 mm yr-1,12,6,8,9
FI-Pap,63.13806,27.246117,300.1099853515625,exact,4,263.9–394.0 mm yr-1,13,6,8,9
FI-Nsv,62.8639,24.08382,307.2436828613281,exact,4,263.9–394.0 mm yr-1,13,6,8,9
FI-Jok,60.8986,23.51345,326.41558837890625,exact,4,263.9–394.0 mm yr-1,14,6,9,9
ES-Yst,38.338932,-2.3506052,448.9371337890625,exact,5,394.0–634.7 mm yr-1,18,8,11,12
ES-VDA,42.15111,1.4473800000000001,604.847900390625,exact,5,394.0–634.7 mm yr-1,20,9,13,14
ES-TzM,39.265785,-1.9397246,384.4165954589844,exact,4,263.9–394.0 mm yr-1,16,7,10,11
ES-Srn,40.15047,-0.8380832,511.6796875,exact,5,394.0–634.7 mm yr-1,19,8,12,13
ES-Pzb,38.362118,-4.767329,429.9270935058594,exact,5,394.0–634.7 mm yr-1,17,7,11,12
ES-Pdu,37.016975,-3.609228,394.2515869140625,exact,5,394.0–634.7 mm yr-1,16,7,10,11
ES-Mzn,40.089497,-0.827409,511.6796875,exact,5,394.0–634.7 mm yr-1,19,8,12,13
ES-MtN,36.99234,-6.4826016,442.3694458007813,exact,5,394.0–634.7 mm yr-1,17,8,11,12
ES-MtB,37.020206,-6.5544033,389.829345703125,exact,4,263.9–394.0 mm yr-1,16,7,10,11
ES-Mcd,39.58819,-0.39969,406.8908081054687,exact,5,394.0–634.7 mm yr-1,16,7,10,11
ES-LM2,39.934593,-5.775881,360.2332458496094,exact,4,263.9–394.0 mm yr-1,15,7,9,10
ES-LM1,39.94269,-5.778683,360.2332458496094,exact,4,263.9–394.0 mm yr-1,15,7,9,10
ES-LJu,36.926594,-2.752115,313.0164794921875,exact,4,263.9–394.0 mm yr-1,13,6,8,9
ES-Hen,38.411087,-1.697534,353.8660583496094,exact,4,263.9–394.0 mm yr-1,15,6,9,10
ES-HeB,38.40475,-1.726215,353.8660583496094,exact,4,263.9–394.0 mm yr-1,15,6,9,10
ES-HdD,38.49679,-5.111296,449.2414855957031,exact,5,394.0–634.7 mm yr-1,18,8,11,12
ES-Gdn,37.91084,-3.228489,391.44879150390625,exact,4,263.9–394.0 mm yr-1,16,7,10,11
ES-FtD,36.99854,-6.434575,442.3694458007813,exact,5,394.0–634.7 mm yr-1,17,8,11,12
ES-Dnn,36.9968,-6.5118,520.90411376953125,exact,5,394.0–634.7 mm yr-1,19,8,12,13
ES-Crg,39.11926,-0.95852,422.4361877441406,exact,5,394.0–634.7 mm yr-1,17,7,11,12
ES-Cnd,37.914997,-3.227659,391.44879150390625,exact,4,263.9–394.0 mm yr-1,16,7,10,11
ES-Amo,36.833405,-2.2522173,243.16114807128903,exact,3,143.4–263.9 mm yr-1,10,5,7,7
ES-Agu,36.939384,-2.034044,243.16114807128903,exact,3,143.4–263.9 mm yr-1,10,5,7,7
ES-Abr,38.70184,-6.785881,436.0550537109375,exact,5,394.0–634.7 mm yr-1,17,7,11,12
EE-Stg,58.023636,26.070753,352.829833984375,exact,4,263.9–394.0 mm yr-1,15,6,9,10
EE-Rng,57.913143,26.694048,376.5223083496094,exact,4,263.9–394.0 mm yr-1,15,7,10,11
EE-Pts,58.562298,24.369932,373.5088806152344,exact,4,263.9–394.0 mm yr-1,15,7,10,11
DK-Fou,56.4842,9.58722,379.8316955566406,exact,4,263.9–394.0 mm yr-1,16,7,10,11
DK-Eng,55.69053,12.19175,389.3805541992187,exact,4,263.9–394.0 mm yr-1,16,7,10,11
DE-Zrk,53.875942,12.88901,415.4722595214844,exact,5,394.0–634.7 mm yr-1,17,7,10,11
DE-Spw,51.89225,14.03369,437.7088317871094,exact,5,394.0–634.7 mm yr-1,17,7,11,12
DE-SfS,47.80629,11.32757,546.5693359375,exact,5,394.0–634.7 mm yr-1,20,8,12,13
DE-Seh,50.870625,6.449653,445.409912109375,exact,5,394.0–634.7 mm yr-1,17,8,11,12
DE-SbM,51.764927,10.51799,453.5633850097656,exact,5,394.0–634.7 mm yr-1,18,8,11,12
DE-RuM,50.929787,6.2969923,445.409912109375,exact,5,394.0–634.7 mm yr-1,17,8,11,12
DE-RuC,50.5031,6.336,445.409912109375,exact,5,394.0–634.7 mm yr-1,17,8,11,12
DE-Rns,51.494953,9.932118,458.75830078125,exact,5,394.0–634.7 mm yr-1,18,8,11,12
DE-Obe,50.7864,13.72168,450.4152526855469,exact,5,394.0–634.7 mm yr-1,18,8,11,12
DE-Lnf,51.328217,10.3678,465.752197265625,exact,5,394.0–634.7 mm yr-1,18,8,11,12
DE-Lkb,49.099617,13.3046665,497.5468444824219,exact,5,394.0–634.7 mm yr-1,19,8,12,13
DE-Hte,54.213055,12.179944,380.35247802734375,exact,4,263.9–394.0 mm yr-1,16,7,10,11
DE-Hdn,53.86825,13.268543,418.2064208984375,exact,5,394.0–634.7 mm yr-1,17,7,10,11
DE-Etn,48.268486,7.878243,518.77294921875,exact,5,394.0–634.7 mm yr-1,19,8,12,13
DE-Akm,53.86617,13.68342,421.3583984375,exact,5,394.0–634.7 mm yr-1,17,7,10,12
CZ-Stn,49.035976,17.9699,507.8115539550781,exact,5,394.0–634.7 mm yr-1,19,8,12,13
CZ-RAJ,49.44372,16.696512,462.6687927246094,exact,5,394.0–634.7 mm yr-1,18,8,11,12
CZ-LnG,48.704224,16.926247,461.2334899902344,exact,5,394.0–634.7 mm yr-1,18,8,11,12
CZ-KrP,49.573257,15.078773,475.18902587890625,exact,5,394.0–634.7 mm yr-1,18,8,11,12
CZ-BK2,49.49443,18.54285,507.7304382324219,exact,5,394.0–634.7 mm yr-1,19,8,12,13
CH-Tnk,47.48058,8.911775,520.25347900390625,exact,5,394.0–634.7 mm yr-1,19,8,12,13
CH-Rtb,47.3804,8.9934,520.25347900390625,exact,5,394.0–634.7 mm yr-1,19,8,12,13
CH-Rh2,47.3,9.5,533.37982177734375,exact,5,394.0–634.7 mm yr-1,19,8,12,13
CH-Rh1,47.3,9.5,533.37982177734375,exact,5,394.0–634.7 mm yr-1,19,8,12,13
CH-Oe3,47.28542,7.732438,529.791015625,exact,5,394.0–634.7 mm yr-1,19,8,12,13
CH-Oe2,47.286415,7.73375,529.791015625,exact,5,394.0–634.7 mm yr-1,19,8,12,13
CH-Oe1,47.28583,7.731944,529.791015625,exact,5,394.0–634.7 mm yr-1,19,8,12,13
CH-Lae,47.478333,8.364389,512.12445068359375,exact,5,394.0–634.7 mm yr-1,19,8,12,13
CH-Fru,47.115833,8.537778,520.25347900390625,exact,5,394.0–634.7 mm yr-1,19,8,12,13
CH-Frk,46.577637,8.421592,466.3170776367187,exact,5,394.0–634.7 mm yr-1,18,8,11,12
CH-For,46.527206,6.7595406,526.3851318359375,exact,5,394.0–634.7 mm yr-1,19,8,12,13
CH-Crs,47.0436,7.0475,527.75714111328125,exact,5,394.0–634.7 mm yr-1,19,8,12,13
CH-Cha,47.21022,8.410444,512.12445068359375,exact,5,394.0–634.7 mm yr-1,19,8,12,13
CH-Aws,46.58311,9.790639,459.2020568847656,exact,5,394.0–634.7 mm yr-1,18,8,11,12
CG-Tch,-4.2891665,11.656417,802.67919921875,exact,6,634.7–968.6 mm yr-1,23,10,14,16
BE-Lcr,51.11218,3.85043,452.407470703125,exact,5,394.0–634.7 mm yr-1,18,8,11,12
AT-Zoe,47.842247,14.444137,553.633544921875,exact,5,394.0–634.7 mm yr-1,20,8,12,13
AT-PsM,47.58145,14.347197,553.633544921875,exact,5,394.0–634.7 mm yr-1,20,8,12,13
AT-Nsd,47.76914,16.758492,507.757568359375,exact,5,394.0–634.7 mm yr-1,19,8,12,13
AT-Neu,47.116318,11.320229,538.36212158203125,exact,5,394.0–634.7 mm yr-1,19,8,12,13
AT-Mmg,47.316563,10.970089,531.167236328125,exact,5,394.0–634.7 mm yr-1,19,8,12,13
CN-Zha,38.97514,100.4464,190.1385955810547,exact,3,143.4–263.9 mm yr-1,8,4,5,6
CN-Yuc,36.8287,116.5701,507.76214599609375,exact,5,394.0–634.7 mm yr-1,19,8,12,13
CN-You,38.01419,100.24206,282.92010498046875,exact,4,263.9–394.0 mm yr-1,12,5,8,8
CN-Yan,37.82861,107.49278,277.99542236328125,exact,4,263.9–394.0 mm yr-1,12,5,7,8
CN-YaS,37.70877,107.22655,277.99542236328125,exact,4,263.9–394.0 mm yr-1,12,5,7,8
CN-Xi2,43.55444,116.6714,315.6322326660156,exact,4,263.9–394.0 mm yr-1,13,6,8,9
CN-Wnb,40.42876,106.74229,144.48484802246094,exact,3,143.4–263.9 mm yr-1,6,3,4,5
CN-Sdq,42.00119,101.13741,36.02893829345703,exact,2,5.0–143.4 mm yr-1,3,2,2,2
CN-Qng,33.46807,108.49102,628.91253662109375,exact,5,394.0–634.7 mm yr-1,21,9,13,14
CN-Nmn,42.94611,120.72694,367.4521484375,exact,4,263.9–394.0 mm yr-1,15,7,9,10
CN-Mxn,31.6948,103.8951,591.31414794921875,exact,5,394.0–634.7 mm yr-1,20,9,12,14
CN-Lch,37.88936,114.69289,454.5689697265625,exact,5,394.0–634.7 mm yr-1,18,8,11,12
CN-Jzh,41.14806,121.20167,457.8568115234375,exact,5,394.0–634.7 mm yr-1,18,8,11,12
CN-Jng,37.83869,101.1145,329.3330993652344,exact,4,263.9–394.0 mm yr-1,14,6,9,10
CN-Huz,38.76519,100.3186,190.1385955810547,exact,3,143.4–263.9 mm yr-1,8,4,5,6
CN-HeM,41.99029,101.13349,34.183937072753906,exact,2,5.0–143.4 mm yr-1,3,2,2,2
CN-HeD,42.1135,100.9872,35.17998504638672,exact,2,5.0–143.4 mm yr-1,3,2,2,2
CN-HaW,37.607655,101.32899,329.3330993652344,exact,4,263.9–394.0 mm yr-1,14,6,9,10
CN-Ha2,37.6086,101.3269,329.3330993652344,exact,4,263.9–394.0 mm yr-1,14,6,9,10
CN-GuT,34.35481,100.4872,322.7206115722656,exact,4,263.9–394.0 mm yr-1,14,6,9,9
CN-Erg,50.1869,119.3889,339.35260009765625,exact,4,263.9–394.0 mm yr-1,14,6,9,10
CN-Dzo,19.546,109.475,885.690673828125,exact,6,634.7–968.6 mm yr-1,25,10,15,17
CN-Du2,42.0467,116.2836,381.5594787597656,exact,4,263.9–394.0 mm yr-1,16,7,10,11
CN-Dsh,38.83992,98.9406,241.59161376953125,exact,3,143.4–263.9 mm yr-1,10,5,7,7
CN-Dmn,38.85551,100.37223,190.1385955810547,exact,3,143.4–263.9 mm yr-1,8,4,5,6
CN-Din,23.1733,112.5361,873.20257568359375,exact,6,634.7–968.6 mm yr-1,24,10,15,16
CN-Dda,41.64397,110.33147,249.10313415527344,exact,3,143.4–263.9 mm yr-1,11,5,7,7
CN-Dan,30.4978,91.0664,316.0395202636719,exact,4,263.9–394.0 mm yr-1,13,6,8,9
CN-DaW,30.4691,91.0624,316.0395202636719,exact,4,263.9–394.0 mm yr-1,13,6,8,9
CN-BeO,40.02621,116.39143,402.4365539550781,exact,5,394.0–634.7 mm yr-1,16,7,10,11
CN-Ash,24.53806,101.02917,708.8150634765625,exact,6,634.7–968.6 mm yr-1,22,9,13,15
CN-Aro,38.04734,100.46432,282.92010498046875,exact,4,263.9–394.0 mm yr-1,12,5,8,8
NZ-BFm,-43.593528,171.929611,612.01666259765625,exact,5,394.0–634.7 mm yr-1,21,9,13,14
AU-Fog,-12.5452,131.3072,927.01641845703125,exact,6,634.7–968.6 mm yr-1,25,10,15,17
AU-Rgf,-32.506102,116.966827,445.2626037597656,exact,5,394.0–634.7 mm yr-1,17,8,11,12
AU-Dry,-15.2588,132.3706,696.79241943359375,exact,6,634.7–968.6 mm yr-1,22,9,13,15
NZ-BFu,-43.591833,171.926833,612.01666259765625,exact,5,394.0–634.7 mm yr-1,21,9,13,14
AU-Wgt,-42.09139,147.07944,542.84356689453125,exact,5,394.0–634.7 mm yr-1,19,8,12,13
AU-APL,-36.862222,147.320833,795.3955078125,exact,6,634.7–968.6 mm yr-1,23,10,14,16
AU-Col,-33.42,116.237,533.3692626953125,exact,5,394.0–634.7 mm yr-1,19,8,12,13
AU-Ctr,-16.103219,145.446922,954.0440063476564,exact,6,634.7–968.6 mm yr-1,25,11,16,17
AU-Gin,-31.376351,115.71377,480.2405090332031,exact,5,394.0–634.7 mm yr-1,18,8,11,12
NZ-ADw,-43.64935,172.34952,517.76031494140625,exact,5,394.0–634.7 mm yr-1,19,8,12,13
NZ-Kop,-37.387875,175.55389,821.7611083984375,exact,6,634.7–968.6 mm yr-1,24,10,14,16
AU-GWW,-30.1914,120.65417,289.0340270996094,exact,4,263.9–394.0 mm yr-1,12,6,8,8
NZ-Lau,-45.038904,169.681109,451.255859375,exact,5,394.0–634.7 mm yr-1,18,8,11,12
AU-Lit,-13.17904,130.79455,903.6741943359376,exact,6,634.7–968.6 mm yr-1,25,10,15,17
AU-Emr,-23.85872,148.4746,565.19134521484375,exact,5,394.0–634.7 mm yr-1,20,8,12,13
AU-How,-12.4952,131.15005,1013.4210205078124,exact,7,>968.6 mm yr-1,30,12,18,20
AU-Rob,-17.11746943,145.6301375,1115.906005859375,exact,7,>968.6 mm yr-1,30,12,18,20
AU-Sno,-36.375649,148.43585,783.8319091796875,exact,6,634.7–968.6 mm yr-1,23,10,14,16
AU-DaS,-14.1592,131.3881,807.28875732421875,exact,6,634.7–968.6 mm yr-1,23,10,14,16
AU-Whr,-36.6732,145.0294,531.809326171875,exact,5,394.0–634.7 mm yr-1,19,8,12,13
AU-Wom,-37.422506,144.094046,590.3258056640625,exact,5,394.0–634.7 mm yr-1,20,9,12,14
AU-Tum,-35.6566,148.1516,732.27984619140625,exact,6,634.7–968.6 mm yr-1,22,9,14,15
AU-Cpr,-34.0027,140.5877,252.0442047119141,exact,3,143.4–263.9 mm yr-1,11,5,7,8
NZ-ADd,-43.64405,172.35465,517.76031494140625,exact,5,394.0–634.7 mm yr-1,19,8,12,13
AU-Ya1,-33.613469,150.734864,760.1728515625,exact,6,634.7–968.6 mm yr-1,23,10,14,15
AU-MvA,-30.543,150.02,632.46630859375,exact,5,394.0–634.7 mm yr-1,21,9,13,14
AU-Ync,-34.9878,146.2908,402.7666931152344,exact,5,394.0–634.7 mm yr-1,16,7,10,11
AU-MvB,-30.697,150.09,632.46630859375,exact,5,394.0–634.7 mm yr-1,21,9,13,14
AU-Rig,-36.6499,145.5759,624.84490966796875,exact,5,394.0–634.7 mm yr-1,21,9,13,14
AU-Wrr,-43.09502,146.65452,736.9249267578125,exact,6,634.7–968.6 mm yr-1,22,9,14,15
AU-Wac,-37.4259,145.1878,632.4759521484375,exact,5,394.0–634.7 mm yr-1,21,9,13,14
NZ-Oxf,-43.2609,172.21588,650.2705078125,exact,6,634.7–968.6 mm yr-1,21,9,13,14
AU-Cum,-33.615278000000004,150.723611,760.1728515625,exact,6,634.7–968.6 mm yr-1,23,10,14,15
AU-TTE,-22.287,133.64,285.9890441894531,exact,4,263.9–394.0 mm yr-1,12,5,8,8
AU-Otw,-38.525,142.81,672.779296875,exact,6,634.7–968.6 mm yr-1,21,9,13,15
AU-Wel,-32.5727,148.9843,615.246337890625,exact,5,394.0–634.7 mm yr-1,21,9,13,14
AU-Cow,-16.238189,145.42715,954.0440063476564,exact,6,634.7–968.6 mm yr-1,25,11,16,17
NZ-Cla,-43.78628,171.59558,612.01666259765625,exact,5,394.0–634.7 mm yr-1,21,9,13,14
AU-RDF,-14.563639,132.477567,762.9434814453125,exact,6,634.7–968.6 mm yr-1,23,10,14,15
AU-Stp,-17.1507,133.3502,511.8424987792969,exact,5,394.0–634.7 mm yr-1,19,8,12,13
AU-Sam,-27.38806,152.87778,875.661376953125,exact,6,634.7–968.6 mm yr-1,24,10,15,17
AU-Lox,-34.47035,140.65512,252.0442047119141,exact,3,143.4–263.9 mm yr-1,11,5,7,8
AU-Ya2,-33.620812,150.763284,760.1728515625,exact,6,634.7–968.6 mm yr-1,23,10,14,15
AU-Sil,-42.090556,147.0875,542.84356689453125,exact,5,394.0–634.7 mm yr-1,19,8,12,13
AU-Ade,-13.0769,131.1178,944.1776123046876,exact,6,634.7–968.6 mm yr-1,25,11,15,17
AU-Lon,-23.52327,144.31042,410.8050231933594,exact,5,394.0–634.7 mm yr-1,17,7,10,11
NZ-ScF,-37.46,175.22,804.8319091796875,exact,6,634.7–968.6 mm yr-1,23,10,14,16
AU-Boy,-32.477093000000004,116.938559,438.5467834472656,exact,5,394.0–634.7 mm yr-1,17,7,11,12
AU-Fle,-19.887285,146.189138,623.71307373046875,exact,5,394.0–634.7 mm yr-1,21,9,13,14
AU-ASM,-22.283,133.249,291.10125732421875,exact,4,263.9–394.0 mm yr-1,12,6,8,9
AU-DaP,-14.0633,131.3181,807.28875732421875,exact,6,634.7–968.6 mm yr-1,23,10,14,16
